[
 {
   "city": "宜蘭縣",
   "place": "宜蘭縣大同鄉衛生所",
   "address": "宜蘭縣大同鄉崙埤村朝陽40號",
   "longitude": 121.608902,
   "latitude": 24.67797852,
   "service": "個案管理服務",
   "phone": "03-9801175",
   "email": "ilocva1418@mail.e-land.gov.tw"
 },
 {
   "city": "宜蘭縣",
   "place": "財團法人一粒麥子社會福利慈善事業基金會-大同鄉",
   "address": "宜蘭縣大同鄉崙埤村朝陽10號-8",
   "longitude": 121.6100006,
   "latitude": 24.6766777,
   "service": "個案管理服務",
   "phone": "03-9801816",
   "email": "a06054@wheat.org.tw"
 },
 {
   "city": "宜蘭縣",
   "place": "宜蘭縣三星鄉衛生所",
   "address": "宜蘭縣三星鄉義德村三星路5段70號",
   "longitude": 121.6515732,
   "latitude": 24.66613197,
   "service": "個案管理服務",
   "phone": "03-9892227",
   "email": "g8911224111@mail.e-land.gov.tw"
 },
 {
   "city": "宜蘭縣",
   "place": "臺北榮民總醫院員山分院",
   "address": "宜蘭縣員山鄉內城村榮光路386號",
   "longitude": 121.6872482,
   "latitude": 24.72199059,
   "service": "個案管理服務",
   "phone": "03-9222141#5002",
   "email": "ysvh1948@mail.ysvh.gov.tw"
 },
 {
   "city": "宜蘭縣",
   "place": "財團法人中華民國佛教慈濟慈善事業基金會",
   "address": "宜蘭縣三星鄉大隱村大隱中路209巷58號1樓",
   "longitude": 121.7182617,
   "latitude": 24.66597176,
   "service": "個案管理服務",
   "phone": "0984-288315",
   "email": "virginia5168@yahoo.com.tw"
 },
 {
   "city": "宜蘭縣",
   "place": "宜蘭員山醫療財團法人宜蘭員山醫院",
   "address": "宜蘭縣員山鄉深溝村尚深路91號",
   "longitude": 121.7215805,
   "latitude": 24.72146416,
   "service": "個案管理服務",
   "phone": "03-9220292",
   "email": "bu_zu0711@yahoo.com.tw"
 },
 {
   "city": "宜蘭縣",
   "place": "宜蘭縣員山鄉衛生所",
   "address": "宜蘭縣員山鄉員山村復興路2號",
   "longitude": 121.7243195,
   "latitude": 24.7444191,
   "service": "個案管理服務",
   "phone": "03-9221575",
   "email": "yoyo0608@mail.e-land.gov.tw"
 },
 {
   "city": "宜蘭縣",
   "place": "財團法人伊甸社會福利基金會",
   "address": "宜蘭縣宜蘭市舊城西路12號1樓",
   "longitude": 121.7496796,
   "latitude": 24.7577095,
   "service": "個案管理服務",
   "phone": "03-9333676",
   "email": "eden5791@eden.org.tw"
 },
 {
   "city": "宜蘭縣",
   "place": "宜蘭縣宜蘭市衛生所",
   "address": "宜蘭縣宜蘭市健康路2段2-2號",
   "longitude": 121.752243,
   "latitude": 24.74585152,
   "service": "個案管理服務",
   "phone": "03-9322362",
   "email": "lucky6877@mail.e-land.gov.tw"
 },
 {
   "city": "宜蘭縣",
   "place": "宜蘭仁愛醫療財團法人宜蘭仁愛醫院",
   "address": "宜蘭縣宜蘭市神農中山路2段260號",
   "longitude": 121.7545319,
   "latitude": 24.74877357,
   "service": "個案管理服務",
   "phone": "03-93321888#1011",
   "email": "jenai1600@gmail.com"
 },
 {
   "city": "宜蘭縣",
   "place": "國立陽明大學附設醫院",
   "address": "宜蘭縣宜蘭市東里校舍路169號",
   "longitude": 121.7587662,
   "latitude": 24.7503109,
   "service": "個案管理服務",
   "phone": "03-9325192#71783",
   "email": "13906@ymuh.ym.edu.tw"
 },
 {
   "city": "宜蘭縣",
   "place": "財團法人一粒麥子社會福利慈善事業基金會-羅東鎮",
   "address": "宜蘭縣羅東鎮漢民里中山路4段11巷6號",
   "longitude": 121.7631302,
   "latitude": 24.67390251,
   "service": "個案管理服務",
   "phone": "03-9518552",
   "email": "107088@wheat.org.tw"
 },
 {
   "city": "宜蘭縣",
   "place": "財團法人宜蘭縣私立天主教弘道仁愛之家",
   "address": "宜蘭縣南澳鄉澳花村蘇花路2段251號",
   "longitude": 121.7657471,
   "latitude": 24.32906342,
   "service": "個案管理服務",
   "phone": "03-9981059",
   "email": "playtoy1109@gmail.com"
 },
 {
   "city": "宜蘭縣",
   "place": "宜蘭縣羅東鎮衛生所",
   "address": "宜蘭縣羅東鎮賢文里民生路79號",
   "longitude": 121.7669678,
   "latitude": 24.6775341,
   "service": "個案管理服務",
   "phone": "03-9542321#219",
   "email": "chia-i@mail.e-land.gov.tw"
 },
 {
   "city": "宜蘭縣",
   "place": "財團法人弘道老人福利基金會-宜蘭社區照顧服務中心",
   "address": "宜蘭縣五結鄉四結村中正路2段7巷5號",
   "longitude": 121.7690582,
   "latitude": 24.69349098,
   "service": "個案管理服務",
   "phone": "03-9641823",
   "email": "c0687530@hondao.org.tw"
 },
 {
   "city": "宜蘭縣",
   "place": "宜蘭縣礁溪鄉衛生所",
   "address": "宜蘭縣礁溪鄉大忠村礁溪路4段126號B1",
   "longitude": 121.7696075,
   "latitude": 24.82080841,
   "service": "個案管理服務",
   "phone": "03-9882908",
   "email": "yghjj1026@mail.e-land.gov.tw"
 },
 {
   "city": "宜蘭縣",
   "place": "財團法人天主教靈醫會",
   "address": "宜蘭縣羅東鎮羅東中正南路160號",
   "longitude": 121.7715759,
   "latitude": 24.67183876,
   "service": "個案管理服務",
   "phone": "03-9544106",
   "email": "tslin073@gmail.com"
 },
 {
   "city": "宜蘭縣",
   "place": "醫療財團法人羅許基金會羅東博愛醫院",
   "address": "宜蘭縣羅東鎮南昌街83號",
   "longitude": 121.7729568,
   "latitude": 24.67176437,
   "service": "個案管理服務",
   "phone": "03-9543131#5233",
   "email": "c055011@mail.pohai.org.tw"
 },
 {
   "city": "宜蘭縣",
   "place": "財團法人宜蘭縣私立竹林養護院",
   "address": "宜蘭縣礁溪鄉六結路151號",
   "longitude": 121.7753143,
   "latitude": 24.81223106,
   "service": "個案管理服務",
   "phone": "03-9889357",
   "email": "lulu152099@gmail.com"
 },
 {
   "city": "宜蘭縣",
   "place": "社團法人宜蘭縣社區照顧促進會",
   "address": "宜蘭縣壯圍鄉吉祥村中央路2段265號",
   "longitude": 121.7859116,
   "latitude": 24.74598312,
   "service": "個案管理服務",
   "phone": "03-9381371#21",
   "email": "yacc.npo@gmail.com"
 },
 {
   "city": "宜蘭縣",
   "place": "宜蘭縣壯圍鄉衛生所",
   "address": "宜蘭縣壯圍鄉吉祥村中央路2段290號",
   "longitude": 121.7864685,
   "latitude": 24.74036598,
   "service": "個案管理服務",
   "phone": "03-9385503#27",
   "email": "lhh630222@mail.e-land.gov.tw"
 },
 {
   "city": "宜蘭縣",
   "place": "宜蘭縣冬山鄉衛生所",
   "address": "宜蘭縣冬山鄉冬山村中正路16號",
   "longitude": 121.7915421,
   "latitude": 24.63612556,
   "service": "個案管理服務",
   "phone": "03-9594772",
   "email": "shujung@mail.e-land.gov.tw"
 },
 {
   "city": "宜蘭縣",
   "place": "財團法人一粒麥子社會福利慈善事業基金會-冬山鄉",
   "address": "宜蘭縣冬山鄉香和村香南路56號",
   "longitude": 121.7970352,
   "latitude": 24.62864685,
   "service": "個案管理服務",
   "phone": "0965-150715",
   "email": "107088@wheat.org.tw"
 },
 {
   "city": "宜蘭縣",
   "place": "宜蘭縣五結鄉衛生所",
   "address": "宜蘭縣五結鄉五結村五結路2段337號",
   "longitude": 121.7989044,
   "latitude": 24.68494034,
   "service": "個案管理服務",
   "phone": "03-9501564",
   "email": "snpo1225@mail.e-land.gov.tw"
 },
 {
   "city": "宜蘭縣",
   "place": "宜蘭縣南澳鄉衛生所",
   "address": "宜蘭縣南澳鄉南澳村蘇花路2段375號",
   "longitude": 121.8034744,
   "latitude": 24.46576691,
   "service": "個案管理服務",
   "phone": "03-9981019",
   "email": "rosa1028@mail.e-land.gov.tw"
 },
 {
   "city": "宜蘭縣",
   "place": "宜蘭縣頭城鎮衛生所",
   "address": "宜蘭縣頭城鎮石城里吉祥路15號",
   "longitude": 121.8204803,
   "latitude": 24.85672569,
   "service": "個案管理服務",
   "phone": "03-9771034",
   "email": "mickey63@mail.e-land.gov.tw"
 },
 {
   "city": "宜蘭縣",
   "place": "財團法人弘道老人福利基金會-頭城社區照顧服務中心",
   "address": "宜蘭縣頭城鎮大溪里纘祥路21號",
   "longitude": 121.8218307,
   "latitude": 24.85660934,
   "service": "個案管理服務",
   "phone": "03-9055003",
   "email": "dasong0211@hondao.org.tw"
 },
 {
   "city": "宜蘭縣",
   "place": "宜蘭縣蘇澳鎮衛生所",
   "address": "宜蘭縣蘇澳鎮蘇西里志成路60號",
   "longitude": 121.8423462,
   "latitude": 24.59310722,
   "service": "個案管理服務",
   "phone": "03-9955471",
   "email": "chiu-yuan@mail.e-land.gov.tw"
 },
 {
   "city": "宜蘭縣",
   "place": "臺北榮民總醫院蘇澳分院",
   "address": "宜蘭縣蘇澳鎮港邊里蘇濱路一段301號",
   "longitude": 121.8486099,
   "latitude": 24.61409569,
   "service": "個案管理服務",
   "phone": "03-9222141#5002",
   "email": "ysvh1948@mail.ysvh.gov.tw"
 },
 {
   "city": "新竹縣",
   "place": "天主教仁慈醫療財團法人",
   "address": "新竹縣新豐鄉新興路289號",
   "longitude": 120.9976807,
   "latitude": 24.87128448,
   "service": "個案管理服務",
   "phone": "03-5578997",
   "email": "107044@mercy.org.tw"
 },
 {
   "city": "新竹縣",
   "place": "新竹縣安歆照護關懷協會",
   "address": "新竹縣竹北市四維街228號",
   "longitude": 121.011879,
   "latitude": 24.83474922,
   "service": "個案管理服務",
   "phone": "03-5536679",
   "email": "ag0322@msn.com"
 },
 {
   "city": "新竹縣",
   "place": "社團法人中華民國五福社會服務協會",
   "address": "新竹縣湖口鄉達生五路280號",
   "longitude": 121.0438614,
   "latitude": 24.8939991,
   "service": "個案管理服務",
   "phone": "03-5908205",
   "email": "Fiveblessings2016@gmail.com"
 },
 {
   "city": "新竹縣",
   "place": "財團法人中華民國佛教慈濟慈善事業基金會(新竹縣)",
   "address": "新竹縣竹東鎮文林路168號",
   "longitude": 121.0887375,
   "latitude": 24.72987747,
   "service": "個案管理服務",
   "phone": "0980-447861",
   "email": "Ltc000042@tzuchi.org.tw"
 },
 {
   "city": "新竹縣",
   "place": "國立臺灣大學醫學院附設醫院竹東分院",
   "address": "新竹縣竹東鎮至善路52號",
   "longitude": 121.0935593,
   "latitude": 24.71867561,
   "service": "個案管理服務",
   "phone": "03-5943248#5519",
   "email": "c04030@chut.ntuh.gov.tw"
 },
 {
   "city": "新竹縣",
   "place": "臺北榮民總醫院新竹分院",
   "address": "新竹縣竹東鎮中豐路一段81號",
   "longitude": 121.0995712,
   "latitude": 24.72270203,
   "service": "個案管理服務",
   "phone": "(03)5962134#342  ",
   "email": "e0618shan@gmail.com"
 },
 {
   "city": "新竹縣",
   "place": "財團法人新竹縣天主教世光教養院",
   "address": "新竹縣竹東鎮中山里大林路14號",
   "longitude": 121.1085052,
   "latitude": 24.81622124,
   "service": "個案管理服務",
   "phone": "03-5882329",
   "email": "liwen200066@gmail.com"
 },
 {
   "city": "新竹縣",
   "place": "財團法人新竹縣天主教世光教養院-關西區",
   "address": "新竹縣關西鎮石光里356號",
   "longitude": 121.1295395,
   "latitude": 24.81371307,
   "service": "個案管理服務",
   "phone": "03-5882329",
   "email": "seamaid28@yahoo.com.tw"
 },
 {
   "city": "新竹縣",
   "place": "中華民國原住民老人長期照顧暨婦幼受暴緊急安置發展關懷協會",
   "address": "新竹縣尖石鄉2鄰麥樹仁5號",
   "longitude": 121.1994629,
   "latitude": 24.70388794,
   "service": "個案管理服務",
   "phone": "03-5841968",
   "email": "J41704101@gmail.com"
 },
 {
   "city": "苗栗縣",
   "place": "李綜合醫療社團法人附設中華護理之家",
   "address": "苗栗縣苑裡鎮中華路137號1.2.3.4樓",
   "longitude": 120.6535645,
   "latitude": 24.43806458,
   "service": "個案管理服務",
   "phone": "037-853668",
   "email": ""
 },
 {
   "city": "苗栗縣",
   "place": "財團法人苗栗縣私立海青老人養護中心",
   "address": "苗栗縣苑裡鎮泰田里泰田103之8號",
   "longitude": 120.6906815,
   "latitude": 24.39590645,
   "service": "個案管理服務",
   "phone": "037-743433",
   "email": "miaoli.hc@gmail.com"
 },
 {
   "city": "苗栗縣",
   "place": "財團法人苗栗縣私立海青老人養護中心",
   "address": "苗栗縣通霄鎮坪頂里坪頂142之5號",
   "longitude": 120.7089767,
   "latitude": 24.45302773,
   "service": "個案管理服務",
   "phone": "037-783233",
   "email": "hai.chints@gmail.com"
 },
 {
   "city": "苗栗縣",
   "place": "財團法人苗栗縣私立海青老人養護中心",
   "address": "苗栗縣西湖鄉三湖村3鄰店仔街41-1號",
   "longitude": 120.75737,
   "latitude": 24.55783463,
   "service": "個案管理服務",
   "phone": "037-330022",
   "email": "haichung188@gmail.com"
 },
 {
   "city": "苗栗縣",
   "place": "財團法人中華民國佛教慈濟慈善事業基金會",
   "address": "苗栗縣三義鄉廣盛村八股路19號",
   "longitude": 120.7618561,
   "latitude": 24.4036274,
   "service": "個案管理服務",
   "phone": "0921-667792",
   "email": "snow811106@gmail.com"
 },
 {
   "city": "苗栗縣",
   "place": "李綜合醫療社團法人附設中華護理之家",
   "address": "苗栗縣三義鄉雙湖17鄰106-2號",
   "longitude": 120.7740021,
   "latitude": 24.42248154,
   "service": "個案管理服務",
   "phone": "0988-077300",
   "email": "leeanh@leehospital.com.tw"
 },
 {
   "city": "苗栗縣",
   "place": "財團法人苗栗縣私立大千社會福利慈善事業基金會",
   "address": "苗栗縣銅鑼鄉竹森村4鄰22-1號",
   "longitude": 120.7828522,
   "latitude": 24.50411606,
   "service": "個案管理服務",
   "phone": "",
   "email": "uzp@dachien.com.tw"
 },
 {
   "city": "苗栗縣",
   "place": "財團法人中華民國佛教慈濟慈善事業基金會",
   "address": "苗栗縣後龍鎮南龍里信義街57之1號",
   "longitude": 120.7868958,
   "latitude": 24.61265183,
   "service": "個案管理服務",
   "phone": "",
   "email": "ltc000019@tzuchi.org.tw"
 },
 {
   "city": "苗栗縣",
   "place": "財團法人苗栗縣私立大千社會福利慈善事業基金會",
   "address": "苗栗縣後龍鎮中山路123號",
   "longitude": 120.7911224,
   "latitude": 24.61377907,
   "service": "個案管理服務",
   "phone": "",
   "email": "uzp@dachien.com.tw"
 },
 {
   "city": "苗栗縣",
   "place": "衛生福利部苗栗醫院",
   "address": "苗栗縣後龍鎮中華路54-1號",
   "longitude": 120.7912521,
   "latitude": 24.6162796,
   "service": "個案管理服務",
   "phone": "037-261920#2156",
   "email": "73002@mil.mohw.gov.tw"
 },
 {
   "city": "苗栗縣",
   "place": "初衷復能物理治療所",
   "address": "苗栗縣頭屋鄉象山村12鄰象山路168-5號",
   "longitude": 120.8082733,
   "latitude": 24.61349487,
   "service": "個案管理服務",
   "phone": "037-270120",
   "email": "longtermcare107@gmail.com"
 },
 {
   "city": "苗栗縣",
   "place": "愛鄰居家護理所",
   "address": "苗栗縣銅鑼鄉中平村中平147之2號",
   "longitude": 120.8088837,
   "latitude": 24.49868584,
   "service": "個案管理服務",
   "phone": "037-222571",
   "email": "a0952990960@gmail.com"
 },
 {
   "city": "苗栗縣",
   "place": "財團法人苗栗縣私立大千社會福利慈善事業基金會",
   "address": "苗栗縣公館鄉福星村6鄰186之1號2樓",
   "longitude": 120.8198471,
   "latitude": 24.50804329,
   "service": "個案管理服務",
   "phone": "037-357125#20109",
   "email": "mia20126826@gmail.com"
 },
 {
   "city": "苗栗縣",
   "place": "財團法人苗栗縣私立大千社會福利慈善事業基金會",
   "address": "苗栗縣苗栗市青苗里中正路611號4樓",
   "longitude": 120.8201523,
   "latitude": 24.55650902,
   "service": "個案管理服務",
   "phone": "037-357125#20109",
   "email": "uzp@dachien.com.tw"
 },
 {
   "city": "苗栗縣",
   "place": "愛鄰居家護理所",
   "address": "苗栗縣公館鄉館東村6鄰館東97號",
   "longitude": 120.8214264,
   "latitude": 24.56015968,
   "service": "個案管理服務",
   "phone": "037-230231",
   "email": "a0952990960@gmail.com"
 },
 {
   "city": "苗栗縣",
   "place": "梓榮醫療社團法人弘大醫院",
   "address": "苗栗縣苗栗市新東街211號1樓",
   "longitude": 120.8227234,
   "latitude": 24.55072403,
   "service": "個案管理服務",
   "phone": "037-361188#611",
   "email": "hopesw125@gmail.com"
 },
 {
   "city": "苗栗縣",
   "place": "財團法人中華民國佛教慈濟慈善事業基金會",
   "address": "苗栗縣苗栗市福星里中華路243號",
   "longitude": 120.8245239,
   "latitude": 24.5766964,
   "service": "個案管理服務",
   "phone": "04-36060666#3959",
   "email": "tc1372012@tzuchi.com.tw"
 },
 {
   "city": "苗栗縣",
   "place": "中華民國健康心靈關懷協會",
   "address": "苗栗縣苗栗市社寮街65號",
   "longitude": 120.8248901,
   "latitude": 24.56877899,
   "service": "個案管理服務",
   "phone": "0937-006266",
   "email": "wenrer.chou@gmail.com"
 },
 {
   "city": "苗栗縣",
   "place": "初衷復能物理治療所",
   "address": "苗栗縣卓蘭鎮新厝里中正路38之1號",
   "longitude": 120.8256607,
   "latitude": 24.31088638,
   "service": "個案管理服務",
   "phone": "037-270121",
   "email": "longtermcare105@gmail.com"
 },
 {
   "city": "苗栗縣",
   "place": "衛生福利部苗栗醫院",
   "address": "苗栗縣苗栗市嘉盛里為公路747號",
   "longitude": 120.8404083,
   "latitude": 24.57565498,
   "service": "個案管理服務",
   "phone": "037-261920#2156",
   "email": "73002@mil.mohw.gov.tw"
 },
 {
   "city": "苗栗縣",
   "place": "社團法人苗栗縣銀髮族照顧協會",
   "address": "苗栗縣造橋鄉談文村學府路61號",
   "longitude": 120.844017,
   "latitude": 24.6478138,
   "service": "個案管理服務",
   "phone": "037-638962#12",
   "email": "silvergroupcare@gmail.com"
 },
 {
   "city": "苗栗縣",
   "place": "社團法人苗栗縣頭屋鄉象山社區發展協會",
   "address": "苗栗縣頭屋鄉象山村象山路197號",
   "longitude": 120.864769,
   "latitude": 24.58014488,
   "service": "個案管理服務",
   "phone": "037-252256",
   "email": "kouryu93@hotmail.com"
 },
 {
   "city": "苗栗縣",
   "place": "苗栗縣大湖鄉衛生所",
   "address": "苗栗縣大湖鄉中原路87號",
   "longitude": 120.8659058,
   "latitude": 24.42424202,
   "service": "個案管理服務",
   "phone": "037-991034",
   "email": "a0952565881@gmail.com"
 },
 {
   "city": "苗栗縣",
   "place": "財團法人苗栗縣私立大千社會福利慈善事業基金會",
   "address": "苗栗縣大湖鄉靜湖村忠孝路69號",
   "longitude": 120.8667526,
   "latitude": 24.42497635,
   "service": "個案管理服務",
   "phone": "",
   "email": "uzp@dachien.com.tw"
 },
 {
   "city": "苗栗縣",
   "place": "為恭醫療財團法人為恭紀念醫院",
   "address": "苗栗縣竹南鎮守法街2-13號2樓",
   "longitude": 120.8682327,
   "latitude": 24.68198013,
   "service": "個案管理服務",
   "phone": "037-676811#88880",
   "email": "cmdsp1@weigong.org.tw"
 },
 {
   "city": "苗栗縣",
   "place": "財團法人苗栗縣私立幼安教養院",
   "address": "苗栗縣苗栗市新英里新英105號",
   "longitude": 120.877655,
   "latitude": 24.68140793,
   "service": "個案管理服務",
   "phone": "037-688955",
   "email": "lee50420@ms24.hinet.net"
 },
 {
   "city": "苗栗縣",
   "place": "財團法人中華民國佛教慈濟慈善事業基金會",
   "address": "苗栗縣竹南鎮光復路73號",
   "longitude": 120.8789978,
   "latitude": 24.68513489,
   "service": "個案管理服務",
   "phone": "",
   "email": "ltc000019@tzuchi.org.tw"
 },
 {
   "city": "苗栗縣",
   "place": "初衷復能物理治療所",
   "address": "苗栗縣頭份市中華路168-1號",
   "longitude": 120.8814697,
   "latitude": 24.66480255,
   "service": "個案管理服務",
   "phone": "0966-558652",
   "email": "spoonbyyoyo23@yahoo.com.tw"
 },
 {
   "city": "苗栗縣",
   "place": "社團法人苗栗縣銀髮族照顧協會",
   "address": "苗栗縣竹南鎮永貞路2段81號",
   "longitude": 120.8853607,
   "latitude": 24.68683815,
   "service": "個案管理服務",
   "phone": "037-638962#12",
   "email": "silvergroupcare@gmail.com"
 },
 {
   "city": "苗栗縣",
   "place": "衛生福利部苗栗醫院",
   "address": "苗栗縣獅潭鄉豐林村10鄰32-號",
   "longitude": 120.9010468,
   "latitude": 24.4886055,
   "service": "個案管理服務",
   "phone": "037-261920#2156",
   "email": "73002@mil.mohw.gov.tw"
 },
 {
   "city": "苗栗縣",
   "place": "社團法人苗栗縣銀髮族照顧協會",
   "address": "苗栗縣頭份市東民路28號",
   "longitude": 120.9024811,
   "latitude": 24.68844414,
   "service": "個案管理服務",
   "phone": "037-638962#12",
   "email": "silvergroupcare@gmail.com"
 },
 {
   "city": "苗栗縣",
   "place": "重光醫院",
   "address": "苗栗縣頭份市中華路1039號",
   "longitude": 120.908226,
   "latitude": 24.68650627,
   "service": "個案管理服務",
   "phone": "037-663030",
   "email": "u910129@yahoo.com.tw"
 },
 {
   "city": "苗栗縣",
   "place": "財團法人苗栗縣私立幼安教養院",
   "address": "苗栗縣苗栗市新英里新英105號",
   "longitude": 120.908371,
   "latitude": 24.68977547,
   "service": "個案管理服務",
   "phone": "037-688955",
   "email": "lee50420@ms24.hinet.net"
 },
 {
   "city": "苗栗縣",
   "place": "為恭醫療財團法人為恭紀念醫院",
   "address": "苗栗縣頭份市信義里信義路128號",
   "longitude": 120.9089813,
   "latitude": 24.68462753,
   "service": "個案管理服務",
   "phone": "037-676811#88637",
   "email": "cmdsp1@weigong.org.tw"
 },
 {
   "city": "苗栗縣",
   "place": "初衷復能物理治療所",
   "address": "苗栗縣泰安鄉八卦村八卦力1鄰13-1號",
   "longitude": 120.9607849,
   "latitude": 24.52954292,
   "service": "個案管理服務",
   "phone": "0932-543323",
   "email": "longtermcare107@gmail.com"
 },
 {
   "city": "苗栗縣",
   "place": "財團法人苗栗縣私立幼安教養院",
   "address": "苗栗縣苗栗市新英里新英105號",
   "longitude": 120.9659805,
   "latitude": 24.66994667,
   "service": "個案管理服務",
   "phone": "037-688955",
   "email": "lee50420@ms24.hinet.net"
 },
 {
   "city": "苗栗縣",
   "place": "為恭醫療財團法人為恭紀念醫院",
   "address": "苗栗縣南庄鄉南江村5鄰73-9號",
   "longitude": 121.003212,
   "latitude": 24.5956192,
   "service": "個案管理服務",
   "phone": "037-676811#88880",
   "email": "cmdsp1@weigong.org.tw"
 },
 {
   "city": "彰化縣",
   "place": "彰化縣芳苑鄉衛生所",
   "address": "彰化縣芳苑鄉斗苑路芳苑段194巷48號",
   "longitude": 120.3205414,
   "latitude": 23.92504501,
   "service": "個案管理服務",
   "phone": "04-8983134",
   "email": ""
 },
 {
   "city": "彰化縣",
   "place": "彰化縣大城鄉衛生所",
   "address": "彰化縣大城鄉中平路126號",
   "longitude": 120.3207169,
   "latitude": 23.8532486,
   "service": "個案管理服務",
   "phone": "04-8941323",
   "email": "dac99@tcmail.mohw.gov.tw"
 },
 {
   "city": "彰化縣",
   "place": "彰化基督教醫療財團法人二林基督教醫院",
   "address": "彰化縣二林鎮安和街40巷28號",
   "longitude": 120.3637009,
   "latitude": 23.89445114,
   "service": "個案管理服務",
   "phone": "04-8952031",
   "email": "110200@cch.org.tw"
 },
 {
   "city": "彰化縣",
   "place": "彰化縣二林鎮衛生所",
   "address": "彰化縣二林鎮斗苑路四段689號",
   "longitude": 120.3728027,
   "latitude": 23.89937592,
   "service": "個案管理服務",
   "phone": "04-8960035",
   "email": "erl25@mail.chshb.gov.tw"
 },
 {
   "city": "彰化縣",
   "place": "秀傳醫療財團法人彰濱秀傳紀念醫院",
   "address": "彰化縣鹿港鎮鹿工路6號",
   "longitude": 120.4110489,
   "latitude": 24.0781765,
   "service": "個案管理服務",
   "phone": "04-7813888#71935",
   "email": "cbhomecare@cbshow.org.tw"
 },
 {
   "city": "彰化縣",
   "place": "彰化縣竹塘鄉衛生所",
   "address": "彰化縣竹塘鄉竹塘竹林路一段304號",
   "longitude": 120.4281769,
   "latitude": 23.860466,
   "service": "個案管理服務",
   "phone": "04-8972009",
   "email": "jut2310@mail.chshb.gov.tw"
 },
 {
   "city": "彰化縣",
   "place": "豐安診所",
   "address": "彰化縣鹿港鎮海浴路11之1號",
   "longitude": 120.4291306,
   "latitude": 24.06106186,
   "service": "個案管理服務",
   "phone": "04-7763711",
   "email": "fengann1209@yahoo.com.tw"
 },
 {
   "city": "彰化縣",
   "place": "彰化基督教醫療財團法人鹿港基督教醫院",
   "address": "彰化縣鹿港鎮中正路480號",
   "longitude": 120.4382401,
   "latitude": 24.06046104,
   "service": "個案管理服務",
   "phone": "04-7779595#7391",
   "email": "712666@cch.org.tw"
 },
 {
   "city": "彰化縣",
   "place": "彰化基督教醫療財團法人鹿港基督教醫院",
   "address": "彰化縣鹿港鎮中正路480號",
   "longitude": 120.4382401,
   "latitude": 24.06046104,
   "service": "個案管理服務",
   "phone": "04-7779595#7391",
   "email": "712666@cch.org.tw"
 },
 {
   "city": "彰化縣",
   "place": "財團法人彰化縣私立慈恩老人養護中心",
   "address": "彰化縣二林鎮華崙里光復路61巷20號",
   "longitude": 120.4428482,
   "latitude": 23.95060539,
   "service": "個案管理服務",
   "phone": "04-8681199",
   "email": "sn8681199@yahoo.com.tw"
 },
 {
   "city": "彰化縣",
   "place": "財團法人彰化縣私立慈恩老人養護中心溪湖區",
   "address": "彰化縣溪湖鎮員鹿路3段201號",
   "longitude": 120.4766846,
   "latitude": 23.97104454,
   "service": "個案管理服務",
   "phone": "04-8681199",
   "email": "sn8681199@yahoo.com.tw"
 },
 {
   "city": "彰化縣",
   "place": "財團法人葳群公益慈善事業基金會",
   "address": "彰化縣永靖鄉福興村永福路二段218號",
   "longitude": 120.5259171,
   "latitude": 23.92230034,
   "service": "個案管理服務",
   "phone": "04-8246888",
   "email": "weichun8246888@gmail.com"
 },
 {
   "city": "彰化縣",
   "place": "衛生福利部彰化醫院",
   "address": "彰化縣埔心鄉舊舘村中正路二段80號",
   "longitude": 120.5271759,
   "latitude": 23.95066834,
   "service": "個案管理服務",
   "phone": "04-8281899#7933",
   "email": "rehab@chhw.mohw.gov.tw"
 },
 {
   "city": "彰化縣",
   "place": "漢銘醫院",
   "address": "彰化縣彰化市中山路一段366號",
   "longitude": 120.5356445,
   "latitude": 24.06126785,
   "service": "個案管理服務",
   "phone": "04-7113456",
   "email": "1300408@cch.org.tw"
 },
 {
   "city": "彰化縣",
   "place": "秀傳醫療社團法人秀傳紀念醫院",
   "address": "彰化縣彰化市中山路一段542號",
   "longitude": 120.5374451,
   "latitude": 24.06476974,
   "service": "個案管理服務",
   "phone": "04-7256166#81297",
   "email": "gh82314@gmail.com"
 },
 {
   "city": "彰化縣",
   "place": "廖慶龍骨科診所",
   "address": "彰化縣彰化市中正路一段452號",
   "longitude": 120.54216,
   "latitude": 24.08261871,
   "service": "個案管理服務",
   "phone": "04-7282142",
   "email": "o972980809@gmail.com"
 },
 {
   "city": "彰化縣",
   "place": "彰化基督教醫療財團法人彰化基督教醫院",
   "address": "彰化縣彰化市南校街135號",
   "longitude": 120.5446854,
   "latitude": 24.0711422,
   "service": "個案管理服務",
   "phone": "04-7238595#8466",
   "email": "149759@cch.org.tw"
 },
 {
   "city": "彰化縣",
   "place": "財團法人切膚之愛社會福利慈善事業基金會",
   "address": "彰化縣彰化市博愛街53巷85號",
   "longitude": 120.5461349,
   "latitude": 24.07276344,
   "service": "個案管理服務",
   "phone": "04-7278503#4542",
   "email": "392358@cch.org.tw "
 },
 {
   "city": "彰化縣",
   "place": "社團法人彰化縣白玉功德會附設彰化縣私立秀老郎綜合式服務類長期照顧服務機構",
   "address": "彰化縣員林市至平街50巷39號",
   "longitude": 120.5659332,
   "latitude": 23.96020699,
   "service": "個案管理服務",
   "phone": "04-8378009",
   "email": "palyul520@gmail.com"
 },
 {
   "city": "彰化縣",
   "place": "彰化基督教醫療財團法人員林基督教醫院",
   "address": "彰化縣員林市莒光路456號",
   "longitude": 120.567215,
   "latitude": 23.96282387,
   "service": "個案管理服務",
   "phone": "04-8381456#2490",
   "email": "1515074@cch.org.tw"
 },
 {
   "city": "彰化縣",
   "place": "財團法人彰化縣私立青山社會福利慈善事業基金會",
   "address": "彰化縣員林市中正里林森路231巷1號",
   "longitude": 120.5772095,
   "latitude": 23.95859528,
   "service": "個案管理服務",
   "phone": "",
   "email": "2233green@gmail.com"
 },
 {
   "city": "彰化縣",
   "place": "財團法人彰化縣私立青山社會福利慈善事業基金會",
   "address": "彰化縣員林市林森路231巷1號",
   "longitude": 120.5773163,
   "latitude": 23.9587822,
   "service": "個案管理服務",
   "phone": "04-8383878",
   "email": ""
 },
 {
   "city": "彰化縣",
   "place": "財團法人彰化縣私立珍瑩老人養護中心",
   "address": "彰化縣社頭鄉山腳路二段726巷23號",
   "longitude": 120.6090851,
   "latitude": 23.91194153,
   "service": "個案管理服務",
   "phone": "04-8739767",
   "email": "jiss.budd@msa.hinet.net"
 },
 {
   "city": "彰化縣",
   "place": "衛生福利部彰化醫院附設二水綜合式服務類長期照顧服務機構",
   "address": "彰化縣二水鄉二水村員集路三段647號",
   "longitude": 120.6156387,
   "latitude": 23.80992317,
   "service": "個案管理服務",
   "phone": "04-8791819",
   "email": "chhw8686@gmail.com"
 },
 {
   "city": "南投縣",
   "place": "財團法人南投縣私立南投仁愛之家",
   "address": "南投縣南投市三興里民族路617號",
   "longitude": 120.676506,
   "latitude": 23.90527153,
   "service": "個案管理服務",
   "phone": "049-2222151*208",
   "email": "a60082032@gmail.com"
 },
 {
   "city": "南投縣",
   "place": "社團法人中華民國紅十字會台灣省南投縣支會附設南投縣私立紅十字會居家式長期照顧服務機構",
   "address": "南投縣南投市三興里三民嶺興路68號",
   "longitude": 120.6835785,
   "latitude": 23.90150261,
   "service": "個案管理服務",
   "phone": "049-2242783#31",
   "email": "nantoured68@gmail.com"
 },
 {
   "city": "南投縣",
   "place": "社團法人南投縣基督教青年會",
   "address": "南投縣草屯鎮玉峰里和興街55號",
   "longitude": 120.6849594,
   "latitude": 23.97823524,
   "service": "個案管理服務",
   "phone": "049-2009991#11",
   "email": "joyce@nantou-ymca.org.tw"
 },
 {
   "city": "南投縣",
   "place": "竹山秀傳醫院",
   "address": "南投縣竹山鎮山崇里集山路二段75號",
   "longitude": 120.7139587,
   "latitude": 23.80016518,
   "service": "個案管理服務",
   "phone": "049-2624266#32020",
   "email": "cs0501@csshow.org.tw"
 },
 {
   "city": "南投縣",
   "place": "社團法人南投縣新媳婦關懷協會附設南投縣私立好媳婦居家式長期照顧服務機構",
   "address": "南投縣竹山鎮山崇里集山路二段75號",
   "longitude": 120.714119,
   "latitude": 23.80014992,
   "service": "個案管理服務",
   "phone": "049-2739331",
   "email": "728mei@gmail.com"
 },
 {
   "city": "南投縣",
   "place": "財團法人伊甸社會福利基金會附設南投縣私立耆福綜合式長期照顧服務機構",
   "address": "南投縣中寮鄉永平村永平路270號",
   "longitude": 120.7661514,
   "latitude": 23.87947083,
   "service": "個案管理服務",
   "phone": "049-2691032#109",
   "email": "eden2412@eden.org.tw"
 },
 {
   "city": "南投縣",
   "place": "社團法人南投縣慈慧善行協會附設南投縣私立慈慧居家式長期照顧服務機構",
   "address": "南投縣集集鎮集集里民生路342號",
   "longitude": 120.7792435,
   "latitude": 23.82701111,
   "service": "個案管理服務",
   "phone": "049-2763012",
   "email": "tsuhuey1@ms33.hinet.net"
 },
 {
   "city": "南投縣",
   "place": "社團法人南投縣生活重建協會",
   "address": "南投縣國姓鄉福龜村長壽巷83之3號",
   "longitude": 120.8228607,
   "latitude": 24.01234627,
   "service": "個案管理服務",
   "phone": "049-2720346",
   "email": "littlefish97641@gmail.com"
 },
 {
   "city": "南投縣",
   "place": "財團法人愚人之友社會福利慈善事業基金會",
   "address": "南投縣埔里鎮鐵山里鐵山路1號",
   "longitude": 120.9373322,
   "latitude": 23.97621155,
   "service": "個案管理服務",
   "phone": "049-2918500#6047",
   "email": "qif@mail.pch.org.tw"
 },
 {
   "city": "南投縣",
   "place": "臺中榮民總醫院埔里分院",
   "address": "南投縣埔里鎮蜈蚣里榮光路1號",
   "longitude": 120.9943695,
   "latitude": 23.97875404,
   "service": "個案管理服務",
   "phone": "049-2990833#3215",
   "email": "vhpld0058@vghtc.gov.tw"
 },
 {
   "city": "雲林縣",
   "place": "雲林縣口湖鄉老人福利協進會",
   "address": "雲林縣口湖鄉下崙村福安路91號(1~3F)",
   "longitude": 120.1616592,
   "latitude": 23.61748886,
   "service": "個案管理服務",
   "phone": "05-7993717",
   "email": "khfa201212@gmail.com"
 },
 {
   "city": "雲林縣",
   "place": "財團法人生命連線基金會",
   "address": "雲林縣臺西鄉溪頂村溪頂151-2號",
   "longitude": 120.1901703,
   "latitude": 23.68206596,
   "service": "個案管理服務",
   "phone": "0960-508281",
   "email": "aa0972179730@gmail.com"
 },
 {
   "city": "雲林縣",
   "place": "社團法人雲林縣台西身心障礙者福利協會",
   "address": "雲林縣臺西鄉五港村五港路188-8號",
   "longitude": 120.2008438,
   "latitude": 23.71036148,
   "service": "個案管理服務",
   "phone": "05-6981790",
   "email": "tai.hsi@hotmail.com"
 },
 {
   "city": "雲林縣",
   "place": "長庚醫療財團法人雲林長庚紀念醫院",
   "address": "雲林縣麥寮鄉三盛村工業路707號",
   "longitude": 120.2188492,
   "latitude": 23.79540253,
   "service": "個案管理服務",
   "phone": "05-6915151#2916",
   "email": "shutingsyu@cgmh.org.tw"
 },
 {
   "city": "雲林縣",
   "place": "社團法人中華民國紅十字會台灣省雲林縣支會",
   "address": "雲林縣東勢鄉復興村復興路5-1號",
   "longitude": 120.2802505,
   "latitude": 23.67972374,
   "service": "個案管理服務",
   "phone": "05-6996538",
   "email": "oldcare97@gmail.com"
 },
 {
   "city": "雲林縣",
   "place": "社團法人雲林縣復健青年協進會",
   "address": "雲林縣北港鎮新街里穎寧街72號",
   "longitude": 120.295433,
   "latitude": 23.5787735,
   "service": "個案管理服務",
   "phone": "05-7827433",
   "email": "yunfull.pakang@gmail.com"
 },
 {
   "city": "雲林縣",
   "place": "財團法人伊甸社會福利基金會(北港區)",
   "address": "雲林縣北港鎮新街里新德路108號",
   "longitude": 120.3042603,
   "latitude": 23.58714485,
   "service": "個案管理服務",
   "phone": "05-7838039#11",
   "email": "p19200@gmail.com"
 },
 {
   "city": "雲林縣",
   "place": "中國醫藥大學北港附設醫院",
   "address": "雲林縣北港鎮新街里新德路123號",
   "longitude": 120.3072281,
   "latitude": 23.5901432,
   "service": "個案管理服務",
   "phone": "05-7837901#1095",
   "email": "T67007@mail.bh.cmu.edu.tw"
 },
 {
   "city": "雲林縣",
   "place": "雲林縣聖心社會關懷協會",
   "address": "雲林縣土庫鎮復興路28號",
   "longitude": 120.3910675,
   "latitude": 23.68144798,
   "service": "個案管理服務",
   "phone": "",
   "email": "yunlincca2@gmail.com"
 },
 {
   "city": "雲林縣",
   "place": "財團法人伊甸社會福利基金會(西螺區)",
   "address": "雲林縣二崙鄉崙西村中正路54號",
   "longitude": 120.4105148,
   "latitude": 23.77067947,
   "service": "個案管理服務",
   "phone": "05-5987893#11",
   "email": "p19200@gmail.com"
 },
 {
   "city": "雲林縣",
   "place": "國立臺灣大學醫學院附設醫院雲林分院(虎尾區)",
   "address": "雲林縣虎尾鎮學府路95號",
   "longitude": 120.4269485,
   "latitude": 23.73508072,
   "service": "個案管理服務",
   "phone": "",
   "email": "y03255@ms1.ylh.gov.tw"
 },
 {
   "city": "雲林縣",
   "place": "社團法人雲林縣老人福利保護協會(虎尾區)",
   "address": "雲林縣虎尾鎮公安路75巷10號",
   "longitude": 120.4338531,
   "latitude": 23.70755005,
   "service": "個案管理服務",
   "phone": "05-6362296",
   "email": "solioboy@yahoo.com.tw"
 },
 {
   "city": "雲林縣",
   "place": "天主教若瑟醫療財團法人若瑟醫院(斗南區)",
   "address": "雲林縣虎尾鎮新生路74號",
   "longitude": 120.4373398,
   "latitude": 23.70801544,
   "service": "個案管理服務",
   "phone": "05-6337333#2311",
   "email": "ph@mail.stjoho.org.tw"
 },
 {
   "city": "雲林縣",
   "place": "財團法人老五老基金會",
   "address": "雲林縣西螺鎮光復西路13-2號",
   "longitude": 120.4655762,
   "latitude": 23.79746819,
   "service": "個案管理服務",
   "phone": "05-5845231",
   "email": "miss25126@ofo.org.tw"
 },
 {
   "city": "雲林縣",
   "place": "佛教慈濟醫療財團法人斗六慈濟醫院(西螺區)",
   "address": "雲林縣西螺鎮大園里光復東路88號",
   "longitude": 120.4690323,
   "latitude": 23.80038452,
   "service": "個案管理服務",
   "phone": "05-5881108",
   "email": "df019325@tzuchi.com.tw"
 },
 {
   "city": "雲林縣",
   "place": "社團法人雲林縣長照機構發展協會",
   "address": "雲林縣虎尾鎮八德街101號",
   "longitude": 120.4709244,
   "latitude": 23.68128586,
   "service": "個案管理服務",
   "phone": "05-6360011",
   "email": "yllongtermcare@gmail.com"
 },
 {
   "city": "雲林縣",
   "place": "雲林縣聖心社會關懷協會",
   "address": "雲林縣斗南鎮斗南新興街16號",
   "longitude": 120.4817047,
   "latitude": 23.67547226,
   "service": "個案管理服務",
   "phone": "05-5977365",
   "email": "yunlincca2@gmail.com"
 },
 {
   "city": "雲林縣",
   "place": "佛教慈濟醫療財團法人斗六慈濟醫院(斗南區)",
   "address": "雲林縣斗南鎮東仁里新生二路178號",
   "longitude": 120.4856949,
   "latitude": 23.67585754,
   "service": "個案管理服務",
   "phone": "0930-835291",
   "email": "df019325@tzuchi.com.tw"
 },
 {
   "city": "雲林縣",
   "place": "社團法人雲林縣老人福利保護協會(斗六區)",
   "address": "雲林縣斗六市虎溪里虎溪路23-1號",
   "longitude": 120.5240326,
   "latitude": 23.72136688,
   "service": "個案管理服務",
   "phone": "05-5519878",
   "email": "oldmman@ms33.hinet.net"
 },
 {
   "city": "雲林縣",
   "place": "社團法人雲林縣老人長期照護協會(斗六區)",
   "address": "雲林縣斗六市保庄里建興路146-2號",
   "longitude": 120.5242538,
   "latitude": 23.70897865,
   "service": "個案管理服務",
   "phone": "05-5820191",
   "email": "careold@ms63.hinet.net"
 },
 {
   "city": "雲林縣",
   "place": "國立臺灣大學醫學院附設醫院雲林分院(斗六區)",
   "address": "雲林縣斗六市雲林路2段579號",
   "longitude": 120.5259171,
   "latitude": 23.69754601,
   "service": "個案管理服務",
   "phone": "05-5323911#6206",
   "email": "o2584691520@gmail.com"
 },
 {
   "city": "雲林縣",
   "place": "國立成功大學醫學院附設醫院斗六分院",
   "address": "雲林縣斗六市莊敬路345號",
   "longitude": 120.5454788,
   "latitude": 23.70320892,
   "service": "個案管理服務",
   "phone": "05-5332121#5214",
   "email": "c5265177@yahoo.com.tw"
 },
 {
   "city": "雲林縣",
   "place": "社團法人雲林縣老人長期照護協會(斗南區)",
   "address": "雲林縣古坑鄉中山路33號",
   "longitude": 120.5613632,
   "latitude": 23.64224434,
   "service": "個案管理服務",
   "phone": "",
   "email": "careold.gukeng@msa.hinet.net"
 },
 {
   "city": "雲林縣",
   "place": "財團法人雲林縣私立同仁仁愛之家",
   "address": "雲林縣林內鄉林茂村復興34號",
   "longitude": 120.6075745,
   "latitude": 23.75003624,
   "service": "個案管理服務",
   "phone": "05-5892670#119",
   "email": "a055892670@gmail.com"
 },
 {
   "city": "嘉義縣",
   "place": "衛生福利部朴子醫院-(A)-東石鄉",
   "address": "嘉義縣東石鄉猿樹村151之10號",
   "longitude": 120.1505737,
   "latitude": 23.45830154,
   "service": "個案管理服務",
   "phone": "05-3790600#321",
   "email": "nur9@puzih.mohw.gov.tw"
 },
 {
   "city": "嘉義縣",
   "place": "長庚醫療財團法人嘉義長庚紀念醫院布袋鎮",
   "address": "嘉義縣布袋鎮龍江里11鄰新厝仔300之1號",
   "longitude": 120.1688614,
   "latitude": 23.38557625,
   "service": "個案管理服務",
   "phone": "05-3621000 #3577",
   "email": "p22109@Cgmh.org.tw"
 },
 {
   "city": "嘉義縣",
   "place": "長庚醫療財團法人嘉義長庚紀念醫院義竹鄉",
   "address": "嘉義縣義竹鄉六桂村177號",
   "longitude": 120.2440643,
   "latitude": 23.33243752,
   "service": "個案管理服務",
   "phone": "05-3477855",
   "email": "p22109@Cgmh.org.tw"
 },
 {
   "city": "嘉義縣",
   "place": "長庚醫療財團法人嘉義長庚紀念醫院",
   "address": "嘉義縣朴子市開元嘉朴路西段6號",
   "longitude": 120.2859573,
   "latitude": 23.46230316,
   "service": "個案管理服務",
   "phone": "05-3621000",
   "email": "p22109@Cgmh.org.tw"
 },
 {
   "city": "嘉義縣",
   "place": "戴德森醫療財團法人嘉義基督教醫院-(A)六腳鄉",
   "address": "嘉義縣六腳鄉三義村48號",
   "longitude": 120.2883148,
   "latitude": 23.51922989,
   "service": "個案管理服務",
   "phone": "05-2586479",
   "email": "cycho10753@gmail.com"
 },
 {
   "city": "嘉義縣",
   "place": "財團法人私立天主教中華聖母社會福利慈善事業基金會-(A)-鹿草鄉",
   "address": "嘉義縣鹿草鄉下潭村196之1號",
   "longitude": 120.2893982,
   "latitude": 23.37542534,
   "service": "個案管理服務",
   "phone": "05-2780040 #3223",
   "email": "hs-center@stm.org.tw"
 },
 {
   "city": "嘉義縣",
   "place": "戴德森醫療財團法人嘉義基督教醫院-(A)太保市",
   "address": "嘉義縣太保市新埤里5鄰新埤214之12號",
   "longitude": 120.3348312,
   "latitude": 23.4859333,
   "service": "個案管理服務",
   "phone": "05-2586479",
   "email": "cycho10753@gmail.com"
 },
 {
   "city": "嘉義縣",
   "place": "社團法人嘉義縣健康促進暨照顧協會",
   "address": "嘉義縣中埔鄉裕民村石頭厝8-1號",
   "longitude": 120.3558426,
   "latitude": 23.42178535,
   "service": "個案管理服務",
   "phone": "05-2532010",
   "email": "onekrazy4jcdoii@hotmail.com"
 },
 {
   "city": "嘉義縣",
   "place": "戴德森醫療財團法人嘉義基督教醫院-(A)新港鄉",
   "address": "嘉義縣新港鄉三間村三間厝231號",
   "longitude": 120.38517,
   "latitude": 23.52060127,
   "service": "個案管理服務",
   "phone": "05-2586479",
   "email": "cycho10753@gmail.com"
 },
 {
   "city": "嘉義縣",
   "place": "佛教慈濟醫療財團法人大林慈濟醫院-(A)-溪口鄉",
   "address": "嘉義縣溪口鄉溪北村中山路91號",
   "longitude": 120.3918152,
   "latitude": 23.60215569,
   "service": "個案管理服務",
   "phone": "05-2651521",
   "email": "df729376@tzuchi.com.tw"
 },
 {
   "city": "嘉義縣",
   "place": "財團法人私立天主教中華聖母社會福利慈善事業基金會-(A)-民雄鄉",
   "address": "嘉義縣民雄鄉山中村牛斗山95-7號",
   "longitude": 120.4050751,
   "latitude": 23.51884842,
   "service": "個案管理服務",
   "phone": "05-2780040 #3223",
   "email": "hs-center@stm.org.tw"
 },
 {
   "city": "嘉義縣",
   "place": "財團法人私立天主教中華聖母社會福利慈善事業基金會-(A)-水上鄉",
   "address": "嘉義縣水上鄉民生村6鄰信義街1號",
   "longitude": 120.4366226,
   "latitude": 23.44652557,
   "service": "個案管理服務",
   "phone": "05-2780040 #3223",
   "email": "hs-center@stm.org.tw"
 },
 {
   "city": "嘉義縣",
   "place": "佛教慈濟醫療財團法人大林慈濟醫院-(A)-大林鎮",
   "address": "嘉義縣大林鎮民生路2號",
   "longitude": 120.4558105,
   "latitude": 23.60112,
   "service": "個案管理服務",
   "phone": "05-2651521",
   "email": "df729376@tzuchi.com.tw"
 },
 {
   "city": "嘉義縣",
   "place": "戴德森醫療財團法人嘉義基督教醫院-(A)民雄鄉",
   "address": "嘉義縣民雄鄉北斗村北勢子95之9號",
   "longitude": 120.458168,
   "latitude": 23.53468132,
   "service": "個案管理服務",
   "phone": "05-2586479",
   "email": "cycho10753@gmail.com"
 },
 {
   "city": "嘉義縣",
   "place": "臺中榮民總醫院灣橋分院",
   "address": "嘉義縣竹崎鄉灣橋村石麻園38號",
   "longitude": 120.5063782,
   "latitude": 23.48777962,
   "service": "個案管理服務",
   "phone": "05-2791072#7007",
   "email": "j084@vghtc.gov.tw"
 },
 {
   "city": "嘉義縣",
   "place": "財團法人嘉義縣私立瑞泰社會福利基金會",
   "address": "嘉義縣番路鄉新福村大庄36之2號",
   "longitude": 120.542305,
   "latitude": 23.45768738,
   "service": "個案管理服務",
   "phone": "05-2590225",
   "email": "raytai225225@gmail.com"
 },
 {
   "city": "嘉義縣",
   "place": "佛教慈濟醫療財團法人大林慈濟醫院-(A)-梅山鄉",
   "address": "嘉義縣梅山鄉梅東村中學路13號",
   "longitude": 120.5603256,
   "latitude": 23.57736206,
   "service": "個案管理服務",
   "phone": "05-2651521",
   "email": "df729376@tzuchi.com.tw"
 },
 {
   "city": "嘉義縣",
   "place": "財團法人嘉義縣私立天主教安道社會福利慈善事業基金會-(A)-大埔鄉",
   "address": "嘉義縣大埔鄉和平村雙溪28號",
   "longitude": 120.5961685,
   "latitude": 23.30197525,
   "service": "個案管理服務",
   "phone": "05-2521001",
   "email": "mindao.s5968@gmail.com"
 },
 {
   "city": "嘉義縣",
   "place": "戴德森醫療財團法人嘉義基督教醫院阿里山鄉",
   "address": "嘉義縣阿里山鄉山美村阿山美村3鄰51號",
   "longitude": 120.6779251,
   "latitude": 23.37887192,
   "service": "個案管理服務",
   "phone": "05-2586479",
   "email": "cych10753@gmail.com"
 },
 {
   "city": "屏東縣",
   "place": "財團法人蘇天生文教基金會",
   "address": "屏東縣東港鎮東隆里東隆街6-2號",
   "longitude": 120.4474335,
   "latitude": 22.46276474,
   "service": "個案管理服務",
   "phone": "08-8311265",
   "email": "kellpan680507@yahoo.com.tw"
 },
 {
   "city": "屏東縣",
   "place": "大愛護理之家",
   "address": "屏東縣萬丹鄉香社村香社村中興路1段70號",
   "longitude": 120.4711456,
   "latitude": 22.56053734,
   "service": "個案管理服務",
   "phone": "08-7763920#21",
   "email": "love.ad10459053@gmail.com"
 },
 {
   "city": "屏東縣",
   "place": "有限責任屏東縣第一照顧服務勞動合作社",
   "address": "屏東縣萬丹鄉萬全村萬榮街90號",
   "longitude": 120.4912186,
   "latitude": 22.59205246,
   "service": "個案管理服務",
   "phone": "08-7764516、08-7761314、08-7760048",
   "email": "no1care10088@gmail.com"
 },
 {
   "city": "屏東縣",
   "place": "衛生福利部屏東醫院-屏東市A",
   "address": "屏東縣屏東市興樂里自由路270號",
   "longitude": 120.4955444,
   "latitude": 22.67326355,
   "service": "個案管理服務",
   "phone": "",
   "email": "nouhcn@pnpn.mohw.gov.tw"
 },
 {
   "city": "屏東縣",
   "place": "向日葵護理之家",
   "address": "屏東縣屏東市忠孝路476號",
   "longitude": 120.5007935,
   "latitude": 22.70220566,
   "service": "個案管理服務",
   "phone": "08-7755585",
   "email": "u000119@yahoo.com.tw"
 },
 {
   "city": "屏東縣",
   "place": "屏基醫療財團法人屏東基督教醫院-屏東市A",
   "address": "屏東縣屏東市華山里莊敬街1段99號",
   "longitude": 120.5024567,
   "latitude": 22.68435478,
   "service": "個案管理服務",
   "phone": "08-7368686#5003",
   "email": "06190@ptch.org.tw"
 },
 {
   "city": "屏東縣",
   "place": "社團法人中華家庭暨社區展望協會",
   "address": "屏東縣屏東市莊敬街二段33號",
   "longitude": 120.503067,
   "latitude": 22.68790627,
   "service": "個案管理服務",
   "phone": "08-7362001",
   "email": "cfcva99@gmail.com"
 },
 {
   "city": "屏東縣",
   "place": "社團法人屏東縣聖佳照顧關懷協會-竹田A",
   "address": "屏東縣竹田鄉鳳明村福安路46號2樓",
   "longitude": 120.5086899,
   "latitude": 22.56765175,
   "service": "個案管理服務",
   "phone": "",
   "email": "bbeey888@gmail.com"
 },
 {
   "city": "屏東縣",
   "place": "社團法人中華萱民會",
   "address": "屏東縣屏東市瑞光里和生路1段14號4樓-1",
   "longitude": 120.5089493,
   "latitude": 22.65971184,
   "service": "個案管理服務",
   "phone": "08-7217875",
   "email": "smhu@jhf.org.tw"
 },
 {
   "city": "屏東縣",
   "place": "財團法人弘道老人福利基金會",
   "address": "屏東縣潮州鎮永春里興隆路118號",
   "longitude": 120.5404434,
   "latitude": 22.54281807,
   "service": "個案管理服務",
   "phone": "",
   "email": "g0050@hondao.org.tw"
 },
 {
   "city": "屏東縣",
   "place": "森陽物理治療所",
   "address": "屏東縣潮州鎮興隆路67號",
   "longitude": 120.5405884,
   "latitude": 22.54161263,
   "service": "個案管理服務",
   "phone": "0987-488599",
   "email": "df870191@gmail.com"
 },
 {
   "city": "屏東縣",
   "place": "財團法人台灣省私立孝愛仁愛之家",
   "address": "屏東縣潮州鎮四維路189巷13號",
   "longitude": 120.5460663,
   "latitude": 22.55420685,
   "service": "個案管理服務",
   "phone": "08-7882351",
   "email": "hsiaoai08@gmail.com"
 },
 {
   "city": "屏東縣",
   "place": "財團法人中華民國佛教慈濟慈善事業基金會",
   "address": "屏東縣佳冬鄉石光村東角路30之1號",
   "longitude": 120.5630188,
   "latitude": 22.43193054,
   "service": "個案管理服務",
   "phone": "08-8668383",
   "email": "yalan570329@gmail.com"
 },
 {
   "city": "屏東縣",
   "place": "財團法人屏東縣私立椰子園老人養護之家",
   "address": "屏東縣長治鄉繁昌村振興路16之9號",
   "longitude": 120.5810318,
   "latitude": 22.70990944,
   "service": "個案管理服務",
   "phone": "08-7621111",
   "email": "wujj0320@gmail.com"
 },
 {
   "city": "屏東縣",
   "place": "枋寮醫療社團法人枋寮醫院",
   "address": "屏東縣枋寮鄉中山路139號",
   "longitude": 120.596344,
   "latitude": 22.36393166,
   "service": "個案管理服務",
   "phone": "08-8789991#5218",
   "email": "janelin1314@gmail.com"
 },
 {
   "city": "屏東縣",
   "place": "高雄榮民總醫院屏東分院",
   "address": "屏東縣內埔鄉龍潭村昭勝路安平1巷1號",
   "longitude": 120.6006088,
   "latitude": 22.67510414,
   "service": "個案管理服務",
   "phone": "",
   "email": "nj54133@mail.vhlc.gov.tw"
 },
 {
   "city": "屏東縣",
   "place": "社團法人屏東縣私立聖佳照顧關懷協會-萬巒A",
   "address": "屏東縣萬巒鄉佳佐村民生路28-12號",
   "longitude": 120.6062546,
   "latitude": 22.56253242,
   "service": "個案管理服務",
   "phone": "",
   "email": "bbeey888@gmail.com"
 },
 {
   "city": "屏東縣",
   "place": "屏東縣春日鄉衛生所",
   "address": "屏東縣春日鄉春日村春日路176號",
   "longitude": 120.6255035,
   "latitude": 22.37029076,
   "service": "個案管理服務",
   "phone": "08-8780358",
   "email": "valakas.tsai@msa.hinet.net"
 },
 {
   "city": "屏東縣",
   "place": "屏東縣私立屏東縣泰武鄉武潭社區發展協會",
   "address": "屏東縣泰武鄉武潭村潭中巷83-1號",
   "longitude": 120.6351852,
   "latitude": 22.57820511,
   "service": "個案管理服務",
   "phone": "",
   "email": "s7832654@yahoo.com.tw"
 },
 {
   "city": "屏東縣",
   "place": "屏東縣瑪家鄉衛生所",
   "address": "屏東縣瑪家鄉北葉村風景巷86號",
   "longitude": 120.6500549,
   "latitude": 22.70809174,
   "service": "個案管理服務",
   "phone": "",
   "email": "muni901214@gmail.com"
 },
 {
   "city": "屏東縣",
   "place": "屏基醫療財團法人屏東基督教醫院-三地門A",
   "address": "屏東縣三地門鄉三地村行政街10號",
   "longitude": 120.6533508,
   "latitude": 22.71399879,
   "service": "個案管理服務",
   "phone": "08-7995139",
   "email": "lu540522@gmail.com"
 },
 {
   "city": "屏東縣",
   "place": "恆基醫療財團法人恆春基督教醫院-車城A",
   "address": "屏東縣車城鄉福安村福安路22-7號",
   "longitude": 120.712265,
   "latitude": 22.07005692,
   "service": "個案管理服務",
   "phone": "08-8892293#811",
   "email": "mkad56@gmail.com"
 },
 {
   "city": "屏東縣",
   "place": "屏東縣霧臺鄉衛生所",
   "address": "屏東縣霧臺鄉霧台村神山巷68號",
   "longitude": 120.7261276,
   "latitude": 22.74988937,
   "service": "個案管理服務",
   "phone": "",
   "email": "huiyachen1974@yahoo.com.tw"
 },
 {
   "city": "屏東縣",
   "place": "衛生福利部恆春旅遊醫院-牡丹A",
   "address": "屏東縣牡丹鄉石門村石門路31-6號",
   "longitude": 120.7732849,
   "latitude": 22.12549591,
   "service": "個案管理服務",
   "phone": "",
   "email": "kaomuakai@gmail.com"
 },
 {
   "city": "屏東縣",
   "place": "恆基醫療財團法人恆春基督教醫院-滿州A",
   "address": "屏東縣滿州鄉滿州村中山路3巷35號2樓",
   "longitude": 120.8372803,
   "latitude": 22.02079964,
   "service": "個案管理服務",
   "phone": "",
   "email": "mkad56@gmail.com"
 },
 {
   "city": "臺東縣",
   "place": "天主教花蓮教區醫療財團法人台東聖母醫院達仁鄉",
   "address": "臺東縣太麻里鄉多良村大溪16鄰141號",
   "longitude": 120.938652,
   "latitude": 22.46221161,
   "service": "個案管理服務",
   "phone": "089-322833#150",
   "email": "402210044@student.tajen.edu.tw"
 },
 {
   "city": "臺東縣",
   "place": "天主教花蓮教區醫療財團法人台東聖母醫院金峰鄉",
   "address": "臺東縣臺東市杭州街2號",
   "longitude": 120.9617538,
   "latitude": 22.59529305,
   "service": "個案管理服務",
   "phone": "089-751007#10",
   "email": "402210044@student.tajen.edu.tw"
 },
 {
   "city": "臺東縣",
   "place": "天主教花蓮教區醫療財團法人台東聖母醫院太麻里鄉",
   "address": "臺東縣太麻里鄉太麻里街466號",
   "longitude": 121.0041733,
   "latitude": 22.60926819,
   "service": "個案管理服務",
   "phone": "089-322833#125",
   "email": "402210044@student.tajen.edu.tw"
 },
 {
   "city": "臺東縣",
   "place": "東基醫療財團法人台東基督教醫院延平鄉",
   "address": "臺東縣延平鄉桃源村1鄰昇平路32號",
   "longitude": 121.0891266,
   "latitude": 22.90686226,
   "service": "個案管理服務",
   "phone": "089-561467",
   "email": "402210044@student.tajen.edu.tw"
 },
 {
   "city": "臺東縣",
   "place": "晴安居家護理所台東市F區",
   "address": "臺東縣臺東市中華路3段103號",
   "longitude": 121.1222,
   "latitude": 22.73644829,
   "service": "個案管理服務",
   "phone": "089-358600",
   "email": "402210044@student.tajen.edu.tw"
 },
 {
   "city": "臺東縣",
   "place": "東美居家物理治療所台東市H區",
   "address": "臺東縣臺東市興安路一段55號",
   "longitude": 121.1275482,
   "latitude": 22.78627777,
   "service": "個案管理服務",
   "phone": "089-235832",
   "email": "402210044@student.tajen.edu.tw"
 },
 {
   "city": "臺東縣",
   "place": "台灣基督長老教會馬偕醫療財團法人台東馬偕紀念醫院台東市CD區",
   "address": "臺東縣臺東市長沙街303巷1號",
   "longitude": 121.1421738,
   "latitude": 22.74980164,
   "service": "個案管理服務",
   "phone": "089-310150#232",
   "email": "402210044@student.tajen.edu.tw"
 },
 {
   "city": "臺東縣",
   "place": "東基醫療財團法人台東基督教醫院卑南鄉B區",
   "address": "臺東縣臺東市開封街350號",
   "longitude": 121.1462784,
   "latitude": 22.76387024,
   "service": "個案管理服務",
   "phone": "089-960888#1206",
   "email": "402210044@student.tajen.edu.tw"
 },
 {
   "city": "臺東縣",
   "place": "天主教花蓮教區醫療財團法人台東聖母醫院大武鄉",
   "address": "臺東縣太麻里鄉多良村大溪16鄰141號",
   "longitude": 121.1464157,
   "latitude": 22.75762939,
   "service": "個案管理服務",
   "phone": "",
   "email": "402210044@student.tajen.edu.tw"
 },
 {
   "city": "臺東縣",
   "place": "財團法人一粒麥子社會福利慈善事業基金會台東市A區",
   "address": "臺東縣臺東市寧波街195號",
   "longitude": 121.1474304,
   "latitude": 22.76498413,
   "service": "個案管理服務",
   "phone": "089-960888#1405",
   "email": "402210044@student.tajen.edu.tw"
 },
 {
   "city": "臺東縣",
   "place": "財團法人一粒麥子社會福利慈善事業基金會鹿野鄉",
   "address": "臺東縣鹿野鄉瑞隆村佑民路2號",
   "longitude": 121.1565857,
   "latitude": 22.95453262,
   "service": "個案管理服務",
   "phone": "089-580632",
   "email": "402210044@student.tajen.edu.tw"
 },
 {
   "city": "臺東縣",
   "place": "財團法人一粒麥子社會福利慈善事業基金會關山鎮",
   "address": "臺東縣關山鎮三民路21號",
   "longitude": 121.1614075,
   "latitude": 23.0472374,
   "service": "個案管理服務",
   "phone": "089-810475",
   "email": "402210044@student.tajen.edu.tw"
 },
 {
   "city": "臺東縣",
   "place": "佛教慈濟醫療財團法人關山慈濟醫院池上鄉",
   "address": "臺東縣關山鎮和平路125之5號",
   "longitude": 121.1677094,
   "latitude": 23.05737305,
   "service": "個案管理服務",
   "phone": "089-814880",
   "email": "402210044@student.tajen.edu.tw"
 },
 {
   "city": "臺東縣",
   "place": "社團法人臺東縣天主教愛德婦女協會海端鄉",
   "address": "臺東縣海端鄉廣原村錦屏15號",
   "longitude": 121.1765747,
   "latitude": 23.132267,
   "service": "個案管理服務",
   "phone": "089-864687",
   "email": "402210044@student.tajen.edu.tw"
 },
 {
   "city": "臺東縣",
   "place": "財團法人門諾社會福利慈善事業基金會長濱鄉",
   "address": "臺東縣東河鄉隆昌村隆昌231號",
   "longitude": 121.2688293,
   "latitude": 22.92888641,
   "service": "個案管理服務",
   "phone": "089-347584",
   "email": "402210044@student.tajen.edu.tw"
 },
 {
   "city": "臺東縣",
   "place": "天主教花蓮教區醫療財團法人台東聖母醫院成功鎮",
   "address": "臺東縣成功鎮小馬路10號",
   "longitude": 121.3135452,
   "latitude": 22.9917202,
   "service": "個案管理服務",
   "phone": "089-322833#112",
   "email": "402210044@student.tajen.edu.tw"
 },
 {
   "city": "臺東縣",
   "place": "臺東縣蘭嶼鄉衛生所蘭嶼鄉",
   "address": "臺東縣蘭嶼鄉紅頭村36號",
   "longitude": 121.5548248,
   "latitude": 22.02479362,
   "service": "個案管理服務",
   "phone": "089-731655",
   "email": "402210044@student.tajen.edu.tw"
 },
 {
   "city": "花蓮縣",
   "place": "花蓮縣富里鄉衛生所",
   "address": "花蓮縣富里鄉富里村中山路203號",
   "longitude": 121.2489014,
   "latitude": 23.17853355,
   "service": "個案管理服務",
   "phone": "03-8831029",
   "email": "amay0429@gmail.com"
 },
 {
   "city": "花蓮縣",
   "place": "花蓮縣瑞穗鄉衛生所",
   "address": "花蓮縣瑞穗鄉瑞穗村民生街75號",
   "longitude": 121.3790588,
   "latitude": 23.49977112,
   "service": "個案管理服務",
   "phone": "03-8872045",
   "email": "meload0305@yahoo.com.tw"
 },
 {
   "city": "花蓮縣",
   "place": "花蓮縣萬榮鄉衛生所",
   "address": "花蓮縣萬榮鄉萬榮村萬榮12號",
   "longitude": 121.4096375,
   "latitude": 23.71517563,
   "service": "個案管理服務",
   "phone": "03-8751651",
   "email": "labye197766@gmail.com "
 },
 {
   "city": "花蓮縣",
   "place": "花蓮縣鳳林鎮衛生所",
   "address": "花蓮縣鳳林鎮鳳智里公正街8之1號",
   "longitude": 121.451828,
   "latitude": 23.74537659,
   "service": "個案管理服務",
   "phone": "03-8761116",
   "email": "shelow59@gmail.com"
 },
 {
   "city": "花蓮縣",
   "place": "財團法人臺灣基督教門諾會醫院壽豐分院",
   "address": "花蓮縣壽豐鄉共和村魚池52號",
   "longitude": 121.5257797,
   "latitude": 23.86938667,
   "service": "個案管理服務",
   "phone": "03-8664600#2244",
   "email": "8338677@mch.org.tw"
 },
 {
   "city": "花蓮縣",
   "place": "佛教慈濟醫療財團法人花蓮慈濟醫院",
   "address": "花蓮縣花蓮市民勤里中央路三段707號",
   "longitude": 121.5925446,
   "latitude": 23.99620438,
   "service": "個案管理服務",
   "phone": "03-8465020",
   "email": "mengrou@tzuchi.com.tw"
 },
 {
   "city": "花蓮縣",
   "place": "國軍花蓮總醫院",
   "address": "花蓮縣新城鄉嘉里村嘉里路163號",
   "longitude": 121.6064758,
   "latitude": 24.02494049,
   "service": "個案管理服務",
   "phone": "03-8263151#815876",
   "email": "H805abc@gmail.com"
 },
 {
   "city": "花蓮縣",
   "place": "衛生福利部花蓮醫院花蓮市A單位",
   "address": "花蓮縣花蓮市民立里中正路600號",
   "longitude": 121.6111832,
   "latitude": 23.97942925,
   "service": "個案管理服務",
   "phone": "03-8358141#3159",
   "email": "yclin5@hwln.mohw.gov.tw"
 },
 {
   "city": "花蓮縣",
   "place": "財團法人門諾社會福利慈善事業基金會附設花蓮縣私立花蓮綜合長照機構",
   "address": "花蓮縣花蓮市民權路4號",
   "longitude": 121.6220093,
   "latitude": 23.98321724,
   "service": "個案管理服務",
   "phone": "03-8338009",
   "email": "mikasa2@mch.org.tw"
 },
 {
   "city": "花蓮縣",
   "place": "花蓮縣秀林鄉衛生所",
   "address": "花蓮縣秀林鄉秀林村秀林90號",
   "longitude": 121.6243057,
   "latitude": 24.11825562,
   "service": "個案管理服務",
   "phone": "03-8612123",
   "email": "slphc09@ms.hlshb.gov.tw"
 },
 {
   "city": "花蓮縣",
   "place": "財團法人臺灣基督教門諾會醫院",
   "address": "花蓮縣花蓮市民權路44號",
   "longitude": 121.6293869,
   "latitude": 23.99185371,
   "service": "個案管理服務",
   "phone": "03-8241349",
   "email": "yinju@mch.org.tw"
 },
 {
   "city": "澎湖縣",
   "place": "社團法人澎湖縣照顧服務協會",
   "address": "澎湖縣馬公市介壽路7-1號",
   "longitude": 119.5620651,
   "latitude": 23.56759262,
   "service": "個案管理服務",
   "phone": "",
   "email": "nunuyang1008@gmail.com"
 },
 {
   "city": "澎湖縣",
   "place": "財團法人平安社會福利慈善事業基金會",
   "address": "澎湖縣馬公市西文新生路351號",
   "longitude": 119.5800476,
   "latitude": 23.56651688,
   "service": "個案管理服務",
   "phone": "",
   "email": "yemai2001@gmail.com"
 },
 {
   "city": "澎湖縣",
   "place": "有限責任高雄市安祥照顧服務勞動合作社",
   "address": "澎湖縣馬公市新店路397號",
   "longitude": 119.5816498,
   "latitude": 23.5631485,
   "service": "個案管理服務",
   "phone": "",
   "email": "caregiv.living@gmail.com"
 },
 {
   "city": "基隆市",
   "place": "長庚醫療財團法人基隆長庚紀念醫院",
   "address": "基隆市安樂區安樂麥金路222號",
   "longitude": 121.7223358,
   "latitude": 25.12110519,
   "service": "個案管理服務",
   "phone": "2431-3131",
   "email": "KLCGMHLTC@gmail.com"
 },
 {
   "city": "基隆市",
   "place": "財團法人臺北市私立恆安老人長期照顧中心(長期照護型)",
   "address": "基隆市安樂區干城里安一路370巷187號",
   "longitude": 121.727951,
   "latitude": 25.13444519,
   "service": "個案管理服務",
   "phone": "2421-6299",
   "email": "1061113405@hangan.org"
 },
 {
   "city": "基隆市",
   "place": "財團法人天下為公社會福利慈善事業基金會",
   "address": "基隆市安樂區干城里安一路329-3號1樓",
   "longitude": 121.7287369,
   "latitude": 25.13418388,
   "service": "個案管理服務",
   "phone": "2428-3696",
   "email": "wba@hangan.org"
 },
 {
   "city": "基隆市",
   "place": "衛生福利部基隆醫院",
   "address": "基隆市信義區仁壽里信二路268號",
   "longitude": 121.7481308,
   "latitude": 25.13026237,
   "service": "個案管理服務",
   "phone": "02-24292525",
   "email": "kao8563@gmail.com"
 },
 {
   "city": "基隆市",
   "place": "財團法人臺北市中國基督教靈糧世界佈道會士林靈糧堂",
   "address": "基隆市中正區正船里中船路11號",
   "longitude": 121.7503586,
   "latitude": 25.13712883,
   "service": "個案管理服務",
   "phone": "2422-5570",
   "email": "kldaycare@slsc.org.tw"
 },
 {
   "city": "基隆市",
   "place": "財團法人伊甸社會福利基金會",
   "address": "基隆市信義區信綠里東信路169號",
   "longitude": 121.7615356,
   "latitude": 25.12850571,
   "service": "個案管理服務",
   "phone": "",
   "email": "eden1059k@mail.eden.org.tw"
 },
 {
   "city": "基隆市",
   "place": "美綠居家護理所",
   "address": "基隆市信義區東信路268號2樓",
   "longitude": 121.7615891,
   "latitude": 25.12864304,
   "service": "個案管理服務",
   "phone": "02-24651695",
   "email": "homecare-KL@medgreen.com.tw"
 },
 {
   "city": "基隆市",
   "place": "基隆市立醫院",
   "address": "基隆市信義區信綠里東信路282號",
   "longitude": 121.7619858,
   "latitude": 25.12960625,
   "service": "個案管理服務",
   "phone": "02-24652141",
   "email": "c0938602873@gmail.com"
 },
 {
   "city": "新竹市",
   "place": "財團法人基督教中華協力會附設新竹市私立伯大尼老人養護中心",
   "address": "新竹市北區北延平路一段491號",
   "longitude": 120.94561,
   "latitude": 24.80487633,
   "service": "個案管理服務",
   "phone": "03-5244222",
   "email": "bethany.home@msa.hinet.net"
 },
 {
   "city": "新竹市",
   "place": "財團法人天主教耶穌會新竹社會服務中心",
   "address": "新竹市北區北北大路373號",
   "longitude": 120.9609299,
   "latitude": 24.80425453,
   "service": "個案管理服務",
   "phone": "03-5224153*55",
   "email": "dc@twcssc.org"
 },
 {
   "city": "新竹市",
   "place": "國泰醫療財團法人新竹國泰綜合醫院",
   "address": "新竹市東區中華路二段678號",
   "longitude": 120.9653168,
   "latitude": 24.79823494,
   "service": "個案管理服務",
   "phone": "03-5278999#5195",
   "email": "hchomecare@cgh.org.tw"
 },
 {
   "city": "新竹市",
   "place": "順順居家護理所",
   "address": "新竹市東區綠水里食品路27號2樓之3",
   "longitude": 120.983551,
   "latitude": 24.80100822,
   "service": "個案管理服務",
   "phone": "03-5165990",
   "email": "mendy1124@gmail.com"
 },
 {
   "city": "新竹市",
   "place": "財團法人老五老基金會附設新竹市私立老五老居家式服務類長期照顧服務機構",
   "address": "新竹市東區仙水里安康街5巷1號3樓",
   "longitude": 121.017189,
   "latitude": 24.78066444,
   "service": "個案管理服務",
   "phone": "03-5794009",
   "email": "yoye1029@ofo.org.tw"
 },
 {
   "city": "嘉義市",
   "place": "臺中榮民總醫院嘉義分院",
   "address": "嘉義市西區新厝里劉世賢路二段600號",
   "longitude": 120.4229965,
   "latitude": 23.46741486,
   "service": "個案管理服務",
   "phone": "05-2359630#3170",
   "email": "cyw31@vghtc.gov.tw"
 },
 {
   "city": "嘉義市",
   "place": "戴德森醫療財團法人私立祈樂園綜合長照機構",
   "address": "嘉義市西區保生里自由路426、428號",
   "longitude": 120.4334564,
   "latitude": 23.49175072,
   "service": "個案管理服務",
   "phone": "05-2348836",
   "email": "cych03010@gmail.com"
 },
 {
   "city": "嘉義市",
   "place": "陽明醫院",
   "address": "嘉義市東區東興里東吳鳳北路252號",
   "longitude": 120.4535141,
   "latitude": 23.48047638,
   "service": "個案管理服務",
   "phone": "",
   "email": "9752566@gmail.com"
 },
 {
   "city": "嘉義市",
   "place": "財團法人私立天主教中華聖母社會福利慈善事業基金會附設嘉義市私立聖愛家園社區式服務類長期照顧服務機構",
   "address": "嘉義市東區芳草里芳安路103號1樓",
   "longitude": 120.4631271,
   "latitude": 23.46845245,
   "service": "個案管理服務",
   "phone": "05-2289916#1805",
   "email": "stmlove@stm.org.tw"
 },
 {
   "city": "臺北市",
   "place": "臺北市立關渡醫院",
   "address": "臺北市北投區知行路225巷12號",
   "longitude": 121.4661255,
   "latitude": 25.12031364,
   "service": "個案管理服務",
   "phone": "0938-909659",
   "email": "yhpan@gandau.gov.tw"
 },
 {
   "city": "臺北市",
   "place": "財團法人臺北市立心慈善基金會",
   "address": "臺北市萬華區桂林路242巷4號4樓之2",
   "longitude": 121.4952469,
   "latitude": 25.03788567,
   "service": "個案管理服務",
   "phone": "02-23361500#14",
   "email": "lishinc42@gmail.com"
 },
 {
   "city": "臺北市",
   "place": "財團法人天主教失智老人社會福利基金會",
   "address": "臺北市萬華區德昌街125巷11號",
   "longitude": 121.496933,
   "latitude": 25.02363968,
   "service": "個案管理服務",
   "phone": "02-23046716#157",
   "email": "crt37crt37@gmail.com"
 },
 {
   "city": "臺北市",
   "place": "財團法人中華民國佛教慈濟慈善事業基金會臺北市私立慈濟居家長照機構",
   "address": "臺北市萬華區莒光路222號5樓",
   "longitude": 121.5002518,
   "latitude": 25.03133583,
   "service": "個案管理服務",
   "phone": "",
   "email": "eswlyu@hotmail.com"
 },
 {
   "city": "臺北市",
   "place": "國立臺灣大學醫學院附設醫院北護分院",
   "address": "臺北市萬華區內江街87號",
   "longitude": 121.5035706,
   "latitude": 25.04171944,
   "service": "個案管理服務",
   "phone": "02-23717101#6100",
   "email": "B40636@msbh.ntuh.gov.tw"
 },
 {
   "city": "臺北市",
   "place": "社團法人中華民國士林靈糧堂社會福利協會",
   "address": "臺北市士林區延平北路五段83巷28弄11號1樓",
   "longitude": 121.5091858,
   "latitude": 25.08159065,
   "service": "個案管理服務",
   "phone": "02-28110515",
   "email": "homeservice@slsc.org.tw"
 },
 {
   "city": "臺北市",
   "place": "社團法人中華民國士林靈糧堂社會福利協會",
   "address": "臺北市士林區延平北路五段83巷28弄11號1樓",
   "longitude": 121.5091858,
   "latitude": 25.08159065,
   "service": "個案管理服務",
   "phone": "02-28110515",
   "email": "homeservice@slsc.org.tw"
 },
 {
   "city": "臺北市",
   "place": "中華民國紅心字會",
   "address": "臺北市中正區重慶南路1段43號5樓之2",
   "longitude": 121.5133057,
   "latitude": 25.04193306,
   "service": "個案管理服務",
   "phone": "",
   "email": "xinyitw@yahoo.com.tw"
 },
 {
   "city": "臺北市",
   "place": "臺北市私立美樺居家式服務類長期照顧服務機構",
   "address": "臺北市中正區重慶南路三段146巷5號",
   "longitude": 121.5159836,
   "latitude": 25.02414894,
   "service": "個案管理服務",
   "phone": "02-23375123",
   "email": "meihuahomecare@gmail.com"
 },
 {
   "city": "臺北市",
   "place": "財團法人天下為公社會福利慈善事業基金會",
   "address": "臺北市士林區承德路4段306號9樓",
   "longitude": 121.518631,
   "latitude": 25.08965492,
   "service": "個案管理服務",
   "phone": "",
   "email": "kcw@mail.oit.edu.tw"
 },
 {
   "city": "臺北市",
   "place": "臺北榮民總醫院",
   "address": "臺北市北投區北投石牌路二段201號",
   "longitude": 121.5203857,
   "latitude": 25.1192112,
   "service": "個案管理服務",
   "phone": "02-28712121#2998",
   "email": "peach82021608@gmail.com"
 },
 {
   "city": "臺北市",
   "place": "社團法人愛福家協會",
   "address": "臺北市中正區愛國東路110巷16號",
   "longitude": 121.5210571,
   "latitude": 25.03214836,
   "service": "個案管理服務",
   "phone": "",
   "email": "rd06@ilive.org.tw"
 },
 {
   "city": "臺北市",
   "place": "台灣基督教長老教會馬偕財團法人馬偕紀念醫院",
   "address": "臺北市中山區中山北路二段92號",
   "longitude": 121.5223694,
   "latitude": 25.05883217,
   "service": "個案管理服務",
   "phone": "02-25433535#3450",
   "email": "mwang@mmh.org.tw"
 },
 {
   "city": "臺北市",
   "place": "台灣基督教長老教會馬偕財團法人馬偕紀念醫院",
   "address": "臺北市中山區中山北路2段92號",
   "longitude": 121.5225601,
   "latitude": 25.05888367,
   "service": "個案管理服務",
   "phone": "",
   "email": "yufang.3243@mmh.org.tw"
 },
 {
   "city": "臺北市",
   "place": "財團法人私立健順養護中心(中山老人住宅暨服務中心)",
   "address": "臺北市中山區新生北路二段101巷2號",
   "longitude": 121.5284119,
   "latitude": 25.05731392,
   "service": "個案管理服務",
   "phone": "02-25420006",
   "email": "elder0006@gmail.com"
 },
 {
   "city": "臺北市",
   "place": "中華民國紅十字會臺灣省分會",
   "address": "臺北市大安區龍坡里新生南路三段20-1號4樓",
   "longitude": 121.5344238,
   "latitude": 25.02418327,
   "service": "個案管理服務",
   "phone": "02-23630098",
   "email": "rct03702883@gmail.com"
 },
 {
   "city": "臺北市",
   "place": "財團法人私立廣恩老人養護中心",
   "address": "臺北市文山區汀洲路4段211號1樓",
   "longitude": 121.5360107,
   "latitude": 25.00313187,
   "service": "個案管理服務",
   "phone": "02-29307999",
   "email": "guannen.a211@gmail.com"
 },
 {
   "city": "臺北市",
   "place": "財團法人弘道老人福利基金會",
   "address": "臺北市松山區復興北路451號1樓",
   "longitude": 121.5444336,
   "latitude": 25.06398773,
   "service": "個案管理服務",
   "phone": "",
   "email": "yvonne@hondao.org.tw"
 },
 {
   "city": "臺北市",
   "place": "臺北市立萬芳醫院",
   "address": "臺北市文山區興隆路三段111號",
   "longitude": 121.5581436,
   "latitude": 24.99990082,
   "service": "個案管理服務",
   "phone": "02-29307930#1465",
   "email": "scyang@w.tmu.edu.tw"
 },
 {
   "city": "臺北市",
   "place": "台北醫學大學附設醫院",
   "address": "臺北市信義區吳興街252號",
   "longitude": 121.5631104,
   "latitude": 25.02704048,
   "service": "個案管理服務",
   "phone": "02-27372181#3938",
   "email": "tmchchn@h.tmu.edu.tw"
 },
 {
   "city": "臺北市",
   "place": "財團法人臺北市中國基督教靈糧世界佈道會士林靈糧堂經營管理臺北市西湖社區式長期照顧服務機構",
   "address": "臺北市內湖區西湖里內湖路一段285號6樓",
   "longitude": 121.5664978,
   "latitude": 25.08241653,
   "service": "個案管理服務",
   "phone": "02-26561700",
   "email": "xihudaycare@slsc.org.tw"
 },
 {
   "city": "臺北市",
   "place": "臺北市政府社會局委託財團法人私立健順養護中心經營管理臺北市松山社區式長期照顧服務機構",
   "address": "臺北市松山區富泰里健康路317號",
   "longitude": 121.5665131,
   "latitude": 25.05443192,
   "service": "個案管理服務",
   "phone": "02-27685636",
   "email": "sselder105@gmail.com"
 },
 {
   "city": "臺北市",
   "place": "財團法人伊甸社會福利基金會",
   "address": "臺北市文山區萬芳里萬和街6號",
   "longitude": 121.5673904,
   "latitude": 25.0019455,
   "service": "個案管理服務",
   "phone": "02-22307715",
   "email": "eden5580@eden.org.tw"
 },
 {
   "city": "臺北市",
   "place": "財團法人伊甸社會福利基金會",
   "address": "臺北市文山區萬美街一段55號",
   "longitude": 121.5681152,
   "latitude": 25.00234222,
   "service": "個案管理服務",
   "phone": "",
   "email": "eden5213@edem.org.tw"
 },
 {
   "city": "臺北市",
   "place": "中化銀髮事業股份有限公司附設臺北市私立中化銀髮居家式服務類長期照顧服務機構",
   "address": "臺北市內湖區洲子街71號",
   "longitude": 121.5720215,
   "latitude": 25.07991791,
   "service": "個案管理服務",
   "phone": "02-27970880#208",
   "email": "rainbow@ccpc.com.tw"
 },
 {
   "city": "臺北市",
   "place": "洪石數位生活有限公司附設臺北市私立到咖手居家式服務類長期照顧服務機構",
   "address": "臺北市信義區義和忠孝東路五段1之7號9樓903室",
   "longitude": 121.5814209,
   "latitude": 25.0430088,
   "service": "個案管理服務",
   "phone": "02-22726233",
   "email": "docaso885@gmail.com"
 },
 {
   "city": "臺北市",
   "place": "三軍總醫院附設民眾診療服務處",
   "address": "臺北市內湖區成功路2段325號",
   "longitude": 121.5899582,
   "latitude": 25.07183075,
   "service": "個案管理服務",
   "phone": "02-87923311#88070",
   "email": "weiliang0508@gmail.com"
 },
 {
   "city": "臺北市",
   "place": "愛志旺股份有限公司附設臺北市私立愛志旺居家式服務類長期照顧服務機構",
   "address": "臺北市南港區東新里重陽路120號",
   "longitude": 121.5994797,
   "latitude": 25.05654907,
   "service": "個案管理服務",
   "phone": "02-27882211",
   "email": "James.yeh@earth-want.com.tw"
 },
 {
   "city": "高雄市",
   "place": "財團法人台南市私立荷園社會福利慈善事業基金會",
   "address": "高雄市茄萣區崎漏里崎漏一街52號",
   "longitude": 120.1902084,
   "latitude": 22.87771606,
   "service": "個案管理服務",
   "phone": "07-6930680",
   "email": "heyuanjean2.0@gmail.com"
 },
 {
   "city": "高雄市",
   "place": "財團法人高雄市華仁社會福利慈善事業基金會",
   "address": "高雄市湖內區大湖里長壽路65巷6弄1號",
   "longitude": 120.2441025,
   "latitude": 22.88464355,
   "service": "個案管理服務",
   "phone": "07-6932382",
   "email": "hawrenkao2.0@gmail.com"
 },
 {
   "city": "高雄市",
   "place": "財團法人高雄市私立聖和社會福利慈善基金會",
   "address": "高雄市路竹區鴨寮里保民路99巷36號",
   "longitude": 120.2705078,
   "latitude": 22.84452248,
   "service": "個案管理服務",
   "phone": "07-6071466",
   "email": "ashengho100@gmail.com"
 },
 {
   "city": "高雄市",
   "place": "高雄市立旗津醫院(委託財團法人私立高雄醫學大學經營)",
   "address": "高雄市旗津區南汕里旗港路33號",
   "longitude": 120.2851639,
   "latitude": 22.59043694,
   "service": "個案管理服務",
   "phone": "07-5711188#1309",
   "email": "yuh3850@gmail.com"
 },
 {
   "city": "高雄市",
   "place": "財團法人獎卿護理展望基金會",
   "address": "高雄市前金區七賢二路371號",
   "longitude": 120.28862,
   "latitude": 22.63054085,
   "service": "個案管理服務",
   "phone": "07-3652920",
   "email": "cc588.cc3808@msa.hinet.net"
 },
 {
   "city": "高雄市",
   "place": "社團法人台灣身心機能活化運動協會",
   "address": "高雄市左營區海勝里翠華路601巷67號",
   "longitude": 120.2896881,
   "latitude": 22.67315865,
   "service": "個案管理服務",
   "phone": "07-5828511",
   "email": "silver.home@msa.hinet.net"
 },
 {
   "city": "高雄市",
   "place": "國軍高雄總醫院左營分院附設民眾診療服務處社區醫學部",
   "address": "高雄市左營區合群里軍校路553號",
   "longitude": 120.2905045,
   "latitude": 22.70121193,
   "service": "個案管理服務",
   "phone": "07-5817121#3102-3103",
   "email": "party570320@gmail.com"
 },
 {
   "city": "高雄市",
   "place": "高雄市立聯合醫院",
   "address": "高雄市鼓山區中華一路976號",
   "longitude": 120.2911911,
   "latitude": 22.6549263,
   "service": "個案管理服務",
   "phone": "07-5552565#2712",
   "email": "kmuhacare@gmail.com"
 },
 {
   "city": "高雄市",
   "place": "財團法人弘道老人福利基金會",
   "address": "高雄市前金區東金里文武一街65號",
   "longitude": 120.293808,
   "latitude": 22.63116264,
   "service": "個案管理服務",
   "phone": "07-2151115",
   "email": "3715009a@gmail.com"
 },
 {
   "city": "高雄市",
   "place": "爵嘉居家護理所",
   "address": "高雄市苓雅區苓中里四維四路216號5樓之3",
   "longitude": 120.2938919,
   "latitude": 22.61419678,
   "service": "個案管理服務",
   "phone": "07-3386108",
   "email": "lihua3649@hotmail.com"
 },
 {
   "city": "高雄市",
   "place": "高雄市立岡山醫院（委託秀傳醫療社團法人經營）",
   "address": "高雄市岡山區壽天路12號",
   "longitude": 120.294632,
   "latitude": 22.79655075,
   "service": "個案管理服務",
   "phone": "07-6222131#51199",
   "email": "3m0036@ks.org.tw"
 },
 {
   "city": "高雄市",
   "place": "信義醫療財團法人",
   "address": "高雄市苓雅區成功一路135巷26號",
   "longitude": 120.2966843,
   "latitude": 22.61436844,
   "service": "個案管理服務",
   "phone": "07-5363018#19",
   "email": "sinyihs.a@gmail.com"
 },
 {
   "city": "高雄市",
   "place": "高雄市立大同醫院(委託財團法人私立高雄醫學大學附設中和紀念醫院經營)",
   "address": "高雄市前金區復元里中華三路68號",
   "longitude": 120.2974014,
   "latitude": 22.62735939,
   "service": "個案管理服務",
   "phone": "07-2911101#8972",
   "email": "986037@kmuh.org.tw"
 },
 {
   "city": "高雄市",
   "place": "社團法人高雄市照顧技術推廣協會",
   "address": "高雄市岡山區後紅里三民路38號",
   "longitude": 120.2984085,
   "latitude": 22.79121017,
   "service": "個案管理服務",
   "phone": "07-6223939",
   "email": "kp2011699@gmail.com"
 },
 {
   "city": "高雄市",
   "place": "阮綜合醫療社團法人",
   "address": "高雄市苓雅區鼓中里自強三路99號",
   "longitude": 120.2987747,
   "latitude": 22.61604691,
   "service": "個案管理服務",
   "phone": "07-3383890#2878",
   "email": "y3024@yuanhosp.com.tw"
 },
 {
   "city": "高雄市",
   "place": "和春護理之家",
   "address": "高雄市岡山區中山南路268號1-3樓",
   "longitude": 120.2996597,
   "latitude": 22.787323,
   "service": "個案管理服務",
   "phone": "07-6265580#9",
   "email": "everything680@yahoo.com"
 },
 {
   "city": "高雄市",
   "place": "社團法人高雄市樂齡照顧關懷協會",
   "address": "高雄市岡山區碧紅里永樂街89巷12號",
   "longitude": 120.3008881,
   "latitude": 22.79500771,
   "service": "個案管理服務",
   "phone": "07-6216881",
   "email": "36964598iseeyou@gmail.com"
 },
 {
   "city": "高雄市",
   "place": "有限責任高雄市育成照顧服務勞動合作社",
   "address": "高雄市左營區政德路647號",
   "longitude": 120.3030396,
   "latitude": 22.68088531,
   "service": "個案管理服務",
   "phone": "07-7017055",
   "email": "yu.cheng01@msa.hinet.net"
 },
 {
   "city": "高雄市",
   "place": "財團法人高雄市郭吳麗珠社會福利慈善事業基金會",
   "address": "高雄市新興區民生一路176號",
   "longitude": 120.3092346,
   "latitude": 22.62791824,
   "service": "個案管理服務",
   "phone": "07-8111159",
   "email": "fs26078489@gmail.com"
 },
 {
   "city": "高雄市",
   "place": "高雄醫學大學附設中和紀念醫院",
   "address": "高雄市三民區自由一路100號",
   "longitude": 120.3101654,
   "latitude": 22.64712143,
   "service": "個案管理服務",
   "phone": "(07)3121101#5104",
   "email": "720023@kmuh.org.tw"
 },
 {
   "city": "高雄市",
   "place": "財團法人中華民國佛教慈濟慈善事業基金會高雄市私立慈濟居家長照機構",
   "address": "高雄市三民區河堤南路50號",
   "longitude": 120.3108139,
   "latitude": 22.65361786,
   "service": "個案管理服務",
   "phone": "07-3987667#3101",
   "email": "tonytsai1017@gmail.com"
 },
 {
   "city": "高雄市",
   "place": "台灣機能促進協會",
   "address": "高雄市橋頭區成功南路5-2號",
   "longitude": 120.3110123,
   "latitude": 22.75562286,
   "service": "個案管理服務",
   "phone": "",
   "email": "tfpapt@gmail.com"
 },
 {
   "city": "高雄市",
   "place": "祥全診所",
   "address": "高雄市前鎮區盛豐里復興三路393號5樓",
   "longitude": 120.3112335,
   "latitude": 22.61356926,
   "service": "個案管理服務",
   "phone": "07-3340393",
   "email": "wellbeing542018@gmail.com"
 },
 {
   "city": "高雄市",
   "place": "復能職能治療所",
   "address": "高雄市三民區民族一路702之13號1樓",
   "longitude": 120.3162994,
   "latitude": 22.66300583,
   "service": "個案管理服務",
   "phone": "07-350-9067",
   "email": "reablementtw@gmail.com"
 },
 {
   "city": "高雄市",
   "place": "高雄榮民總醫院",
   "address": "高雄市左營區大中一路386號",
   "longitude": 120.3223877,
   "latitude": 22.67977715,
   "service": "個案管理服務",
   "phone": "07-3468337",
   "email": "yjsong@vghks.gov.tw"
 },
 {
   "city": "高雄市",
   "place": "高雄市立民生醫院",
   "address": "高雄市苓雅區凱旋二路134號",
   "longitude": 120.3229218,
   "latitude": 22.62834167,
   "service": "個案管理服務",
   "phone": "07-7511131#5115",
   "email": "kmshalongway@gmail.com"
 },
 {
   "city": "高雄市",
   "place": "天主教聖功醫療財團法人聖功醫院",
   "address": "高雄市苓雅區建國一路352號2樓",
   "longitude": 120.3239822,
   "latitude": 22.63335228,
   "service": "個案管理服務",
   "phone": "07-2238153",
   "email": "sjhotc@gmail.com"
 },
 {
   "city": "高雄市",
   "place": "高雄市立凱旋醫院",
   "address": "高雄市苓雅區凱旋二路130號",
   "longitude": 120.3240356,
   "latitude": 22.62512207,
   "service": "個案管理服務",
   "phone": "",
   "email": "momo1019@kcg.gov.tw"
 },
 {
   "city": "高雄市",
   "place": "善逸居家護理所",
   "address": "高雄市楠梓區土庫路296巷1號",
   "longitude": 120.3301926,
   "latitude": 22.74038696,
   "service": "個案管理服務",
   "phone": "07-6109166",
   "email": "Good313335@yahoo.com.tw"
 },
 {
   "city": "高雄市",
   "place": "佳馨居家護理所",
   "address": "高雄市三民區壽昌路283號",
   "longitude": 120.333252,
   "latitude": 22.64435387,
   "service": "個案管理服務",
   "phone": "07-3834555",
   "email": "a1666888@ms81.hinet.net"
 },
 {
   "city": "高雄市",
   "place": "社團法人高雄市長期照顧人員福利促進協會",
   "address": "高雄市鳳山區信義街303號",
   "longitude": 120.3480988,
   "latitude": 22.62695122,
   "service": "個案管理服務",
   "phone": "07-7777163",
   "email": "wpmember@yahoo.com.tw"
 },
 {
   "city": "高雄市",
   "place": "社團法人高雄市受恩社區關懷協會",
   "address": "高雄市仁武區仁武里仁樂街210號",
   "longitude": 120.3491287,
   "latitude": 22.70392609,
   "service": "個案管理服務",
   "phone": "07-3723189",
   "email": "fsap@stipendiary.tw"
 },
 {
   "city": "高雄市",
   "place": "財團法人高雄市慈聯社會福利基金會",
   "address": "高雄市仁武區仁雄路42號",
   "longitude": 120.350647,
   "latitude": 22.68070602,
   "service": "個案管理服務",
   "phone": "",
   "email": "3715009A@gmail.com"
 },
 {
   "city": "高雄市",
   "place": "財團法人高雄市私立萃文書院社會福利慈善事業基金會",
   "address": "高雄市鳳山區平等路174號",
   "longitude": 120.3511505,
   "latitude": 22.62039757,
   "service": "個案管理服務",
   "phone": "07-7481803",
   "email": "scakc174@gmail.com"
 },
 {
   "city": "高雄市",
   "place": "有限責任高雄市協和照顧服務勞動合作社",
   "address": "高雄市鳳山區信義街50號",
   "longitude": 120.3547287,
   "latitude": 22.62736893,
   "service": "個案管理服務",
   "phone": "07-7407512",
   "email": "gueilan1532@gmail.com"
 },
 {
   "city": "高雄市",
   "place": "有限責任高雄市安祥照顧服務勞動合作社",
   "address": "高雄市鳳山區大東一路113號",
   "longitude": 120.361351,
   "latitude": 22.62212563,
   "service": "個案管理服務",
   "phone": "07-7902768",
   "email": "anxiangcare@gmail.com"
 },
 {
   "city": "高雄市",
   "place": "高雄市立鳳山醫院(委託長庚醫療財團法人經營)",
   "address": "高雄市鳳山區經武路42號",
   "longitude": 120.3627853,
   "latitude": 22.62882996,
   "service": "個案管理服務",
   "phone": "07-7418151#3407",
   "email": "lin5006@cgmh.org.tw"
 },
 {
   "city": "高雄市",
   "place": "高雄市立小港醫院(委託財團法人私立高雄醫學大學經營)",
   "address": "高雄市小港區山明里山明路482號",
   "longitude": 120.3633194,
   "latitude": 22.56740952,
   "service": "個案管理服務",
   "phone": "07-8036783",
   "email": "bubblewu@hotmail.com"
 },
 {
   "city": "高雄市",
   "place": "財團法人高雄市私立典寶社會福利慈善事業基金會",
   "address": "高雄市仁武區考潭里成功路5號",
   "longitude": 120.3642807,
   "latitude": 22.68479156,
   "service": "個案管理服務",
   "phone": "07-3722268#216",
   "email": "dbtah598@gmail.com"
 },
 {
   "city": "高雄市",
   "place": "義大醫療財團法人義大醫院",
   "address": "高雄市燕巢區角宿里義大路1號",
   "longitude": 120.364357,
   "latitude": 22.76590729,
   "service": "個案管理服務",
   "phone": "07-6150011#1710",
   "email": "ed100251@edah.org.tw"
 },
 {
   "city": "高雄市",
   "place": "建佑醫院",
   "address": "高雄市林園區東林西路360號",
   "longitude": 120.3866806,
   "latitude": 22.50382042,
   "service": "個案管理服務",
   "phone": "07-6437901#962",
   "email": "cyha1688@gmail.com"
 },
 {
   "city": "高雄市",
   "place": "財團法人喜憨兒社會福利基金會附設高雄市私立喜憨兒天鵝堡",
   "address": "高雄市旗山區南勝里得勝巷2之1號",
   "longitude": 120.4562607,
   "latitude": 22.79642487,
   "service": "個案管理服務",
   "phone": "07-6665482#215",
   "email": "t00671@careus.org.tw"
 },
 {
   "city": "高雄市",
   "place": "財團法人伊甸社會福利基金會",
   "address": "高雄市旗山區花旗二路108號",
   "longitude": 120.4653549,
   "latitude": 22.88269043,
   "service": "個案管理服務",
   "phone": "",
   "email": "eden1612@eden.org.tw"
 },
 {
   "city": "高雄市",
   "place": "衛生福利部旗山醫院",
   "address": "高雄市旗山區東新街25巷8號",
   "longitude": 120.4826355,
   "latitude": 22.88017273,
   "service": "個案管理服務",
   "phone": "07-6613811#3011",
   "email": "chis.swr@gmail.com"
 },
 {
   "city": "高雄市",
   "place": "重安醫院",
   "address": "高雄市旗山區大德里大仁街18號",
   "longitude": 120.4848022,
   "latitude": 22.88302612,
   "service": "個案管理服務",
   "phone": "07-6627920",
   "email": "ca6627920@gmail.com"
 },
 {
   "city": "高雄市",
   "place": "有限責任高雄市日新照顧服務勞動合作社",
   "address": "高雄市美濃區雙峰街6-3號",
   "longitude": 120.5400085,
   "latitude": 22.91065025,
   "service": "個案管理服務",
   "phone": "07-6811377",
   "email": "z076811377@gmail.com"
 },
 {
   "city": "高雄市",
   "place": "高雄市茂林區衛生所",
   "address": "高雄市茂林區茂林里茂林里8之4號",
   "longitude": 120.6640854,
   "latitude": 22.88639259,
   "service": "個案管理服務",
   "phone": "07-680-1046#16",
   "email": "muni19691019@gmail.com"
 },
 {
   "city": "高雄市",
   "place": "高雄市那瑪夏區衛生所",
   "address": "高雄市那瑪夏區平和巷252號",
   "longitude": 120.6977921,
   "latitude": 23.24120331,
   "service": "個案管理服務",
   "phone": "07-6701142",
   "email": "yafeihe045@gmail.com"
 },
 {
   "city": "高雄市",
   "place": "高雄市桃源區衛生所",
   "address": "高雄市桃源區桃源里南進巷188-1號",
   "longitude": 120.7641754,
   "latitude": 23.1584549,
   "service": "個案管理服務",
   "phone": "07-6861126#300",
   "email": "ibu0831@kcg.gov.tw"
 },
 {
   "city": "新北市",
   "place": "新北市私立和鄰居家式服務類長期照顧服務機構",
   "address": "新北市鶯歌區文化路235、237號1樓",
   "longitude": 121.3539429,
   "latitude": 24.95311356,
   "service": "個案管理服務",
   "phone": "02-77091222",
   "email": "honear2018@gmail.com"
 },
 {
   "city": "新北市",
   "place": "行天宮醫療志業醫療財團法人恩主公醫院",
   "address": "新北市三峽區鳶山里復興路399號",
   "longitude": 121.3629074,
   "latitude": 24.93830681,
   "service": "個案管理服務",
   "phone": "02-26723456#8739",
   "email": "15227@km.eck.org.tw"
 },
 {
   "city": "新北市",
   "place": "清福醫院附設居家護理所",
   "address": "新北市三峽區民生街154之1號2樓",
   "longitude": 121.3721008,
   "latitude": 24.93508148,
   "service": "個案管理服務",
   "phone": "02-26739288",
   "email": "yuan.yuan@hsiaohospital.org"
 },
 {
   "city": "新北市",
   "place": "新北市私立大心居家長照機構",
   "address": "新北市樹林區大義路238號",
   "longitude": 121.3777924,
   "latitude": 24.94609451,
   "service": "個案管理服務",
   "phone": "02-26808878",
   "email": "dasin.homecare@gmail.com"
 },
 {
   "city": "新北市",
   "place": "衛生福利部樂生療養院",
   "address": "新北市新莊區中正路794號",
   "longitude": 121.4098511,
   "latitude": 25.0216217,
   "service": "個案管理服務",
   "phone": "02-82006600#2146",
   "email": "ls65526@lslp.mohw.gov.tw"
 },
 {
   "city": "新北市",
   "place": "財團法人天主教主顧修女會",
   "address": "新北市泰山區新生路4號",
   "longitude": 121.4282379,
   "latitude": 25.04487228,
   "service": "個案管理服務",
   "phone": "02-29062242#322",
   "email": "miraclesp2000@gmail.com"
 },
 {
   "city": "新北市",
   "place": "金大心股份有限公司附設新北市私立金大心居家長照機構",
   "address": "新北市新莊區樹新路206號4樓",
   "longitude": 121.4310532,
   "latitude": 24.99985123,
   "service": "個案管理服務",
   "phone": "0988-190973",
   "email": "tracy092060324@gmail.com"
 },
 {
   "city": "新北市",
   "place": "佳藥長照藥局",
   "address": "新北市淡水區學府路75號1樓",
   "longitude": 121.4483795,
   "latitude": 25.1699791,
   "service": "個案管理服務",
   "phone": "02-26211321",
   "email": "jiayao1321@gmail.com"
 },
 {
   "city": "新北市",
   "place": "建嘉藥局",
   "address": "新北市新莊區中誠街42號",
   "longitude": 121.4513702,
   "latitude": 25.04821205,
   "service": "個案管理服務",
   "phone": "0988-190973",
   "email": "tracy092060324@gmail.com"
 },
 {
   "city": "新北市",
   "place": "五甘心物理治療所",
   "address": "新北市新莊區中央路297號3樓",
   "longitude": 121.451683,
   "latitude": 25.05870247,
   "service": "個案管理服務",
   "phone": "02-85213385",
   "email": "wugunshing@gmail.com"
 },
 {
   "city": "新北市",
   "place": "醫療財團法人徐元智先生醫藥基金會亞東紀念醫院",
   "address": "新北市板橋區華東里南雅南路二段21號",
   "longitude": 121.452774,
   "latitude": 24.99726486,
   "service": "個案管理服務",
   "phone": "02-77282243",
   "email": "sw19779@mail.femh.org.tw"
 },
 {
   "city": "新北市",
   "place": "廣川醫院",
   "address": "新北市土城區裕民路276號",
   "longitude": 121.4549713,
   "latitude": 24.98238182,
   "service": "個案管理服務",
   "phone": "02-22617000",
   "email": "gracelin1201@yahoo.com.tw"
 },
 {
   "city": "新北市",
   "place": "蕭中正醫院",
   "address": "新北市板橋區南雅南路一段1巷30號2樓",
   "longitude": 121.4571609,
   "latitude": 25.00665665,
   "service": "個案管理服務",
   "phone": "02-29688939",
   "email": "Angela.wu@hsiohospital.org"
 },
 {
   "city": "新北市",
   "place": "中英醫療社團法人附設居家護理所",
   "address": "新北市新莊區恆安里中正路78巷13號",
   "longitude": 121.4580765,
   "latitude": 25.03826332,
   "service": "個案管理服務",
   "phone": "02-29930313",
   "email": "jean030973@gmail.com"
 },
 {
   "city": "新北市",
   "place": "衛生福利部臺北醫院",
   "address": "新北市新莊區思源路127號",
   "longitude": 121.4596252,
   "latitude": 25.0432415,
   "service": "個案管理服務",
   "phone": "02-22765566#1789",
   "email": "nurse53614@tph.mohw.gov.tw"
 },
 {
   "city": "新北市",
   "place": "財團法人弘道老人福利基金會",
   "address": "新北市新莊區思源路38號9樓",
   "longitude": 121.460228,
   "latitude": 25.04262924,
   "service": "個案管理服務",
   "phone": "02-89913925#201",
   "email": "hondao-tp@hondao.org.tw"
 },
 {
   "city": "新北市",
   "place": "台灣基督長老教會馬偕醫療財團法人淡水馬偕紀念醫院",
   "address": "新北市淡水區民生路45號",
   "longitude": 121.4618149,
   "latitude": 25.13892746,
   "service": "個案管理服務",
   "phone": "02-25433535",
   "email": "mwang@mmh.org.tw"
 },
 {
   "city": "新北市",
   "place": "新北市私立蕙心居家式服務類長期照顧服務機構",
   "address": "新北市蘆洲區中路里中正路185巷31弄34號",
   "longitude": 121.4669571,
   "latitude": 25.08351135,
   "service": "個案管理服務",
   "phone": "02-22885701",
   "email": "chang201141105@yahoo.com.tw"
 },
 {
   "city": "新北市",
   "place": "社團法人中華民國照顧服務員專業發展協會",
   "address": "新北市土城區延安街40號5樓",
   "longitude": 121.4674377,
   "latitude": 24.98515129,
   "service": "個案管理服務",
   "phone": "(02)22651680",
   "email": "careworkertw@yahoo.com.tw"
 },
 {
   "city": "新北市",
   "place": "三重中興醫院附設護理之家",
   "address": "新北市三重區中興北街21號4樓",
   "longitude": 121.4696732,
   "latitude": 25.04655838,
   "service": "個案管理服務",
   "phone": "02-29954245",
   "email": "hanya520@hotmail.com"
 },
 {
   "city": "新北市",
   "place": "璟馨居家護理所",
   "address": "新北市土城區延吉里延吉街76號3樓",
   "longitude": 121.4710083,
   "latitude": 24.98661995,
   "service": "個案管理服務",
   "phone": "02-77230968",
   "email": "Jxhomecare@gmail.com"
 },
 {
   "city": "新北市",
   "place": "聯順居家護理所",
   "address": "新北市板橋區永豐街75巷17-1號2樓",
   "longitude": 121.4729691,
   "latitude": 25.01870728,
   "service": "個案管理服務",
   "phone": "(02)89642333",
   "email": "thnbuurtzorg@gmail.com"
 },
 {
   "city": "新北市",
   "place": "社團法人愛福家協會",
   "address": "新北市板橋區雙十路二段217號",
   "longitude": 121.4732285,
   "latitude": 25.02904892,
   "service": "個案管理服務",
   "phone": "02-22500177",
   "email": "As03@ilive.org.tw"
 },
 {
   "city": "新北市",
   "place": "財團法人新北市私立雙連社會福利慈善事業基金會",
   "address": "新北市新莊區中央路51號",
   "longitude": 121.4752808,
   "latitude": 25.25389862,
   "service": "個案管理服務",
   "phone": "(02)85217872#316",
   "email": "info@slswf.org.tw"
 },
 {
   "city": "新北市",
   "place": "家嘉藥局",
   "address": "新北市中和區員山路377號",
   "longitude": 121.4811172,
   "latitude": 25.00238991,
   "service": "個案管理服務",
   "phone": "02-82281388",
   "email": "camilla1018@gmail.com"
 },
 {
   "city": "新北市",
   "place": "新北市私立萬眾居家長照機構",
   "address": "新北市三重區田安里集賢路131號",
   "longitude": 121.4894791,
   "latitude": 25.08946037,
   "service": "個案管理服務",
   "phone": "02-28577722",
   "email": "wzhcservice@gmail.com"
 },
 {
   "city": "新北市",
   "place": "新北市立聯合醫院",
   "address": "新北市三重區新北大道一段3號",
   "longitude": 121.4906845,
   "latitude": 25.06077957,
   "service": "個案管理服務",
   "phone": "02-29829111",
   "email": "AH5007@ntpc.gov.tw"
 },
 {
   "city": "新北市",
   "place": "新北市私立旺福居家長照機構",
   "address": "新北市三重區福隆路48號1樓",
   "longitude": 121.4924774,
   "latitude": 25.07857895,
   "service": "個案管理服務",
   "phone": "02-28571526",
   "email": "wfservice2@gmail.com"
 },
 {
   "city": "新北市",
   "place": "衛生福利部雙和醫院(委託臺北醫學大學興建經營)",
   "address": "新北市中和區中正里中正路291號",
   "longitude": 121.4935226,
   "latitude": 24.99269867,
   "service": "個案管理服務",
   "phone": "02-22490088#8603",
   "email": "08550@s.tmu.edu.tw"
 },
 {
   "city": "新北市",
   "place": "衛生福利部八里療養院",
   "address": "新北市中和區力行里南山路4巷3號",
   "longitude": 121.5016785,
   "latitude": 24.99863243,
   "service": "個案管理服務",
   "phone": "02-22540386",
   "email": "6453@balipc.gov.tw"
 },
 {
   "city": "新北市",
   "place": "社團法人中華長照協會附設新北市私立永樂居家式服務類長期照顧服務機構",
   "address": "新北市三重區長元街100-2號1、2樓",
   "longitude": 121.5028076,
   "latitude": 25.06678772,
   "service": "個案管理服務",
   "phone": "02-29280005",
   "email": "healthcom888@gmail.com"
 },
 {
   "city": "新北市",
   "place": "新北市私立立穎居家長照機構",
   "address": "新北市中和區忠孝街77巷4號1樓",
   "longitude": 121.5117874,
   "latitude": 24.9852314,
   "service": "個案管理服務",
   "phone": "02-86686651",
   "email": "liinhomecare@gmail.com"
 },
 {
   "city": "新北市",
   "place": "天主教耕莘醫療財團法人永和耕莘醫院",
   "address": "新北市永和區中興街80號",
   "longitude": 121.5177307,
   "latitude": 25.01187515,
   "service": "個案管理服務",
   "phone": "(02)29286060#10694",
   "email": "ltcabc.cthyh@gmail.com"
 },
 {
   "city": "新北市",
   "place": "柏愛藥局",
   "address": "新北市永和區永成里竹林路57號",
   "longitude": 121.5184021,
   "latitude": 25.01396179,
   "service": "個案管理服務",
   "phone": "0963-336906",
   "email": "boaipharmacy.201306@gmail.com"
 },
 {
   "city": "新北市",
   "place": "天主教耕莘醫療財團法人耕莘醫院",
   "address": "新北市新店區百和里中正路362號",
   "longitude": 121.5357513,
   "latitude": 24.97629356,
   "service": "個案管理服務",
   "phone": "02-22193391#66022",
   "email": "a0929969925@gmail.com"
 },
 {
   "city": "新北市",
   "place": "佛教慈濟醫療財團法人附設新北市私立台北慈濟居家式服務類長期照顧服務機構",
   "address": "新北市新店區明德里建國路289號",
   "longitude": 121.5370331,
   "latitude": 24.98589706,
   "service": "個案管理服務",
   "phone": "02-66289779",
   "email": "maggie16471@tzuchi.com.tw"
 },
 {
   "city": "新北市",
   "place": "新北市深坑區衛生所",
   "address": "新北市深坑區深坑里深坑街165號",
   "longitude": 121.6125717,
   "latitude": 25.00091362,
   "service": "個案管理服務",
   "phone": "02-26621567",
   "email": "aj8178@ntpc.gov.tw"
 },
 {
   "city": "新北市",
   "place": "財團法人臺灣省私立健順養護中心",
   "address": "新北市深坑區昇高里王軍寮9號",
   "longitude": 121.6163025,
   "latitude": 24.9824543,
   "service": "個案管理服務",
   "phone": "(02)29451169#11",
   "email": "d6622499@ms26.hinet.net"
 },
 {
   "city": "新北市",
   "place": "國立臺灣大學醫學院附設醫院金山分院",
   "address": "新北市金山區11鄰玉爐路7號",
   "longitude": 121.6283417,
   "latitude": 25.21946907,
   "service": "個案管理服務",
   "phone": "(02)24989898#7502",
   "email": "anny.a1218@gmail.com"
 },
 {
   "city": "新北市",
   "place": "皓仁健康照護事業有限公司",
   "address": "新北市汐止區大同路1段217號5樓-2",
   "longitude": 121.6390915,
   "latitude": 25.05912209,
   "service": "個案管理服務",
   "phone": "(02)26480680",
   "email": "yenjen@haoren.com.tw"
 },
 {
   "city": "新北市",
   "place": "新北市私立愛迪樂居家長照機構",
   "address": "新北市汐止區汐萬路一段278巷3號2樓",
   "longitude": 121.6507492,
   "latitude": 25.07428932,
   "service": "個案管理服務",
   "phone": "02-25216043",
   "email": "a0986391797@gmail.com"
 },
 {
   "city": "新北市",
   "place": "新北市石碇區衛生所",
   "address": "新北市石碇區潭邊里碇坪路1段82號 ",
   "longitude": 121.657608,
   "latitude": 24.99134827,
   "service": "個案管理服務",
   "phone": "02 6631325",
   "email": "ab7358@ntpc.gov.tw"
 },
 {
   "city": "新北市",
   "place": "國泰醫療財團法人汐止國泰綜合醫院",
   "address": "新北市汐止區建成路59巷2號",
   "longitude": 121.6611938,
   "latitude": 25.07253647,
   "service": "個案管理服務",
   "phone": "02-26482121",
   "email": "eline@cgh.org.tw"
 },
 {
   "city": "新北市",
   "place": "財團法人老五老基金會",
   "address": "新北市汐止區橋東里建成路160巷53號",
   "longitude": 121.6618576,
   "latitude": 25.07456017,
   "service": "個案管理服務",
   "phone": "02-86422321",
   "email": "tp@ofo.org.tw"
 },
 {
   "city": "新北市",
   "place": "佳醫護理之家",
   "address": "新北市汐止區茄苳路296號1-6樓",
   "longitude": 121.673027,
   "latitude": 25.06704903,
   "service": "個案管理服務",
   "phone": "02-86486672",
   "email": "ying.jinn@gmail.com"
 },
 {
   "city": "新北市",
   "place": "財團法人天下為公社會福利慈善事業基金會",
   "address": "新北市汐止區大同路三段425號",
   "longitude": 121.677742,
   "latitude": 25.07168007,
   "service": "個案管理服務",
   "phone": "02-86488388#308",
   "email": "kcw@mail.oit.edu.tw"
 },
 {
   "city": "新北市",
   "place": "新北市坪林區衛生所",
   "address": "新北市坪林區坪林街10號",
   "longitude": 121.711731,
   "latitude": 24.93590546,
   "service": "個案管理服務",
   "phone": "02-26658349",
   "email": "AL6070@ntpc.gov.tw"
 },
 {
   "city": "新北市",
   "place": "新北市平溪區衛生所",
   "address": "新北市平溪區公園街17號",
   "longitude": 121.7378235,
   "latitude": 25.02505875,
   "service": "個案管理服務",
   "phone": "02-24951015",
   "email": "tpc262@ntpc.gov.tw"
 },
 {
   "city": "新北市",
   "place": "新北市瑞芳區衛生所",
   "address": "新北市瑞芳區龍興里明燈路三段1號",
   "longitude": 121.8090744,
   "latitude": 25.10737991,
   "service": "個案管理服務",
   "phone": "02-24972132",
   "email": "an5927@ntpc.gov.tw"
 },
 {
   "city": "新北市",
   "place": "財團法人天下為公社會福利慈善事業基金會(社照C)",
   "address": "新北市雙溪區新基西街19號",
   "longitude": 121.8655624,
   "latitude": 25.03748894,
   "service": "個案管理服務",
   "phone": "(02)86488388#127",
   "email": "1070320474@hangan.org"
 },
 {
   "city": "新北市",
   "place": "新北市雙溪區衛生所",
   "address": "新北市雙溪區新基里新基南街18號",
   "longitude": 121.8662567,
   "latitude": 25.03798866,
   "service": "個案管理服務",
   "phone": "02-24931210#22",
   "email": "Ag9215@ntpc.gov.tw"
 },
 {
   "city": "新北市",
   "place": "新北市貢寮區衛生所",
   "address": "新北市貢寮區仁愛路128號",
   "longitude": 121.9275208,
   "latitude": 25.05497551,
   "service": "個案管理服務",
   "phone": "02-24901431",
   "email": "af9107@ntpc.gov.tw"
 },
 {
   "city": "臺中市",
   "place": "社團法人台灣福氣社區關懷協會(梧棲區)",
   "address": "臺中市梧棲區頂寮里大仁路二段349號",
   "longitude": 120.5344849,
   "latitude": 24.26333809,
   "service": "個案管理服務",
   "phone": "04-26570600",
   "email": "sow0414@gmail.com"
 },
 {
   "city": "臺中市",
   "place": "臺中市私立安佳居家長照機構",
   "address": "臺中市梧棲區民生街2-63號",
   "longitude": 120.534874,
   "latitude": 24.25130653,
   "service": "個案管理服務",
   "phone": "",
   "email": "a6567003@yahoo.com.tw"
 },
 {
   "city": "臺中市",
   "place": "仁美護理之家",
   "address": "臺中市梧棲區仁美街33巷48號",
   "longitude": 120.5360641,
   "latitude": 24.25365639,
   "service": "個案管理服務",
   "phone": "04-26579955",
   "email": "jmei9955@gmail.com"
 },
 {
   "city": "臺中市",
   "place": "臺中市好伴照顧協會",
   "address": "臺中市大肚區大肚里紙廠路53號",
   "longitude": 120.5417557,
   "latitude": 24.15147209,
   "service": "個案管理服務",
   "phone": "0921-372391",
   "email": ""
 },
 {
   "city": "臺中市",
   "place": "童綜合醫療社團法人童綜合醫院",
   "address": "臺中市梧棲區文華街28巷131號1樓",
   "longitude": 120.5435867,
   "latitude": 24.24630737,
   "service": "個案管理服務",
   "phone": "04-26581919*54410",
   "email": "t3240@ms.sltung.com.tw"
 },
 {
   "city": "臺中市",
   "place": "光田醫療社團法人光田綜合醫院(龍井區)",
   "address": "臺中市龍井區山腳里沙田路6段211號2樓",
   "longitude": 120.54953,
   "latitude": 24.20948982,
   "service": "個案管理服務",
   "phone": "04-2662-5111#2066",
   "email": "peggy660217@yahoo.com.tw"
 },
 {
   "city": "臺中市",
   "place": "真善美復能物理治療所",
   "address": "臺中市自由路218號1樓",
   "longitude": 120.5496521,
   "latitude": 24.14891434,
   "service": "個案管理服務",
   "phone": "04-26990005",
   "email": ""
 },
 {
   "city": "臺中市",
   "place": "光田醫療社團法人光田綜合醫院(沙鹿區)",
   "address": "臺中市沙鹿區興安里大同街5-2號1樓",
   "longitude": 120.5568924,
   "latitude": 24.23306084,
   "service": "個案管理服務",
   "phone": "04-2662-5111#2066",
   "email": "peggy660217@yahoo.com.tw"
 },
 {
   "city": "臺中市",
   "place": "財團法人中華民國佛教慈濟慈善事業基金會(清水區)",
   "address": "臺中市清水區秀水里13鄰五權路267號",
   "longitude": 120.5602264,
   "latitude": 24.2766571,
   "service": "個案管理服務",
   "phone": "02-40510777#6013",
   "email": "ltc000165@tzuchi.org.tw"
 },
 {
   "city": "臺中市",
   "place": "財團法人台灣省私立永信社會福利基金會",
   "address": "臺中市清水區中社里鎮政路99巷10號1樓",
   "longitude": 120.5602722,
   "latitude": 24.26841736,
   "service": "個案管理服務",
   "phone": "04-262708012-320",
   "email": "u90141@yungshingroup.com"
 },
 {
   "city": "臺中市",
   "place": "財團法人臺中市私立家寶社會福利慈善事業基金會附設私立居家長照機構",
   "address": "臺中市沙鹿區成功西街33號2樓",
   "longitude": 120.5603027,
   "latitude": 24.24283028,
   "service": "個案管理服務",
   "phone": "04-26626161#4160",
   "email": "swtung103@gmail.com"
 },
 {
   "city": "臺中市",
   "place": "財團法人中華民國佛教慈濟慈善事業基金會(沙鹿區)",
   "address": "臺中市沙鹿區美仁里鎮南路二段472號",
   "longitude": 120.5664597,
   "latitude": 24.23241615,
   "service": "個案管理服務",
   "phone": "02-40510777#6014",
   "email": "ltc000164@tzuchi.org.tw"
 },
 {
   "city": "臺中市",
   "place": "社團法人臺中市大大人長期照護關懷協會私立居家長照機構(清水區)",
   "address": "臺中市清水區中華路327號",
   "longitude": 120.5666351,
   "latitude": 24.26879501,
   "service": "個案管理服務",
   "phone": "",
   "email": "dadazenltc@gmail.com"
 },
 {
   "city": "臺中市",
   "place": "仁惠護理之家",
   "address": "臺中市清水區橋頭里24鄰鎮新二街105號",
   "longitude": 120.5731354,
   "latitude": 24.27379036,
   "service": "個案管理服務",
   "phone": "",
   "email": "rhhome2005@gmail.com"
 },
 {
   "city": "臺中市",
   "place": "社團法人台灣福氣社區關懷協會(清水區)",
   "address": "臺中市清水區中山路66號",
   "longitude": 120.5741959,
   "latitude": 24.26317406,
   "service": "個案管理服務",
   "phone": "04-26570600",
   "email": "sow0414@gmail.com"
 },
 {
   "city": "臺中市",
   "place": "社團法人台灣福氣社區關懷協會(沙鹿區)",
   "address": "臺中市沙鹿區台灣大道6段805號",
   "longitude": 120.5809097,
   "latitude": 24.21116447,
   "service": "個案管理服務",
   "phone": "04-26313878",
   "email": "sow0414@gmail.com"
 },
 {
   "city": "臺中市",
   "place": "高銘診所",
   "address": "臺中市大安區中山南路249號",
   "longitude": 120.5928879,
   "latitude": 24.38327217,
   "service": "個案管理服務",
   "phone": "0983-936995",
   "email": "home26715618@gmail.com"
 },
 {
   "city": "臺中市",
   "place": "財團法人敬德基金會附設護理之家",
   "address": "臺中市西屯區敬德街8號1、2、3樓",
   "longitude": 120.6119385,
   "latitude": 24.19960213,
   "service": "個案管理服務",
   "phone": "04-24614546 #88862",
   "email": "i.hsuan9596@gamil.com"
 },
 {
   "city": "臺中市",
   "place": "財團法人全成社會福利基金會",
   "address": "臺中市南屯區忠勇路23-12號2樓",
   "longitude": 120.6119766,
   "latitude": 24.1373539,
   "service": "個案管理服務",
   "phone": "04-23890743",
   "email": "qc21408721@gmail.com"
 },
 {
   "city": "臺中市",
   "place": "臺中榮民總醫院",
   "address": "臺中市西屯區福林路10號",
   "longitude": 120.6143494,
   "latitude": 24.18420982,
   "service": "個案管理服務",
   "phone": "04-23592525",
   "email": "dcf@vghtc.gov.tw"
 },
 {
   "city": "臺中市",
   "place": "臺中市私立香柏木居家式服務類長期照顧服務機構",
   "address": "臺中市烏日區湖日里榮泰街163巷2號",
   "longitude": 120.616394,
   "latitude": 24.10359573,
   "service": "個案管理服務",
   "phone": "04-22610888",
   "email": "wuhome52@gmail.com"
 },
 {
   "city": "臺中市",
   "place": "財團法人弘道老人福利基金會附設臺中市私立弘道第一區居家式服務類長期照顧服務機構",
   "address": "臺中市西屯區何安里中工三路199號2樓",
   "longitude": 120.6178665,
   "latitude": 24.17598534,
   "service": "個案管理服務",
   "phone": "04-23505555#19",
   "email": "hondao.middle@hondao.org.tw"
 },
 {
   "city": "臺中市",
   "place": "李綜合醫療社團法人大甲李綜合醫院",
   "address": "臺中市大甲區平安里八德街2號",
   "longitude": 120.6180725,
   "latitude": 24.3507843,
   "service": "個案管理服務",
   "phone": "0978-728695",
   "email": "number8.tseng@gmail.com"
 },
 {
   "city": "臺中市",
   "place": "仁馨護理之家",
   "address": "臺中市大甲區奉化里經國路789號1樓、789號3樓之1、789號3樓之2、789號6樓、789之1號、789之2號",
   "longitude": 120.6197357,
   "latitude": 24.35578156,
   "service": "個案管理服務",
   "phone": "04-26863000",
   "email": "11844@cych.org.tw"
 },
 {
   "city": "臺中市",
   "place": "社團法人台灣福氣社區關懷協會(108.03.31停/歇業)",
   "address": "臺中市仁愛南路25號",
   "longitude": 120.6230774,
   "latitude": 24.23461151,
   "service": "個案管理服務",
   "phone": "0926-314532",
   "email": ""
 },
 {
   "city": "臺中市",
   "place": "財團法人臺灣省私立永信社會福利基金會",
   "address": "臺中市大甲區中山里水源路167號3樓",
   "longitude": 120.6265793,
   "latitude": 24.34094429,
   "service": "個案管理服務",
   "phone": "04-26760180 #162",
   "email": "u90251@yungshingroup.com"
 },
 {
   "city": "臺中市",
   "place": "社團法人台灣省社區關懷協會附設臺中市私立愛鄰居家式服務類長期照顧服務機構",
   "address": "臺中市烏日區烏日里五光路1086號1樓",
   "longitude": 120.6270752,
   "latitude": 24.10454178,
   "service": "個案管理服務",
   "phone": "04-23386651",
   "email": "Socialcare561@gmail.com"
 },
 {
   "city": "臺中市",
   "place": "財團法人臺中市私立豐盛社會福利慈善事業基金會",
   "address": "臺中市南屯區25鄰楓和路701號1樓",
   "longitude": 120.6319809,
   "latitude": 24.11719894,
   "service": "個案管理服務",
   "phone": "04-2479-2569",
   "email": "hueiching07@yahoo.com.tw"
 },
 {
   "city": "臺中市",
   "place": "財團法人臺中市私立童庭社會福利慈善事業基金會",
   "address": "臺中市烏日區九德里長春街373巷52號",
   "longitude": 120.6356659,
   "latitude": 24.10767174,
   "service": "個案管理服務",
   "phone": "04-23360996#23",
   "email": "ttcharity@gmail.com"
 },
 {
   "city": "臺中市",
   "place": "社團法人臺中市大恆樂齡協會(南屯區)",
   "address": "臺中市南屯區文昌街226巷46號1樓",
   "longitude": 120.6362152,
   "latitude": 24.13949776,
   "service": "個案管理服務",
   "phone": "04-23802117",
   "email": "dahn9696@gmail.com"
 },
 {
   "city": "臺中市",
   "place": "私立長照好幫手居家長照機構",
   "address": "臺中市外埔區大東里甲后路五段128巷66號3樓",
   "longitude": 120.6392288,
   "latitude": 24.34266472,
   "service": "個案管理服務",
   "phone": "0963-128434",
   "email": "aqd3652@gmail.com"
 },
 {
   "city": "臺中市",
   "place": "社團法人台灣福氣社區關懷協會(西屯區)",
   "address": "臺中市西屯區逢甲路253巷47號",
   "longitude": 120.6415405,
   "latitude": 24.17521095,
   "service": "個案管理服務",
   "phone": "04-27003618",
   "email": "sow0414@gmail.com"
 },
 {
   "city": "臺中市",
   "place": "財團法人中華民國佛教慈濟慈善事業基金會(南屯區)",
   "address": "臺中市南屯區文心南路113號1樓",
   "longitude": 120.6462555,
   "latitude": 24.13728523,
   "service": "個案管理服務",
   "phone": "04-36060666*5600",
   "email": "ltc82393545@gmail.com"
 },
 {
   "city": "臺中市",
   "place": "維弘復健科診所",
   "address": "臺中市大雅區民興街63號",
   "longitude": 120.6482697,
   "latitude": 24.22556114,
   "service": "個案管理服務",
   "phone": "04-25681919",
   "email": "Piggy2229@yahoo.com.tw"
 },
 {
   "city": "臺中市",
   "place": "祥和長照服務有限公司私立祥和居家長照機構",
   "address": "臺中市南區大慶街二段11之63巷3弄20號",
   "longitude": 120.6518478,
   "latitude": 24.11464882,
   "service": "個案管理服務",
   "phone": "04-22605999",
   "email": "sing111ms14@yahoo.com.tw"
 },
 {
   "city": "臺中市",
   "place": "財團法人台中市私立龍眼林社會福利慈善事業基金會附設私立龍眼林居家長照機構",
   "address": "臺中市大雅區員林里民生路二段20號1-3樓",
   "longitude": 120.6548386,
   "latitude": 24.22952843,
   "service": "個案管理服務",
   "phone": "04-25682195",
   "email": "lon.ho@msa.hinet.net"
 },
 {
   "city": "臺中市",
   "place": "臺中市善護協會(108.03.31停/歇業)",
   "address": "臺中市西屯區東興路3段416號",
   "longitude": 120.6557541,
   "latitude": 24.15843773,
   "service": "個案管理服務",
   "phone": "04-23261600*666",
   "email": "keep650106@gmail.com"
 },
 {
   "city": "臺中市",
   "place": "佛教慈濟醫療財團法人附設台中慈濟護理之家(西屯區)",
   "address": "臺中市西屯區何明里忠義街146號",
   "longitude": 120.6580353,
   "latitude": 24.16235352,
   "service": "個案管理服務",
   "phone": "04-36060666*3521",
   "email": "tc1372006@tzuchi.com.tw"
 },
 {
   "city": "臺中市",
   "place": "社團法人臺中市大大人長期照護關懷協會",
   "address": "臺中市神岡區神圳路82號",
   "longitude": 120.6589813,
   "latitude": 24.26620293,
   "service": "個案管理服務",
   "phone": "04-25610188",
   "email": "dadazenltc@gmail.com"
 },
 {
   "city": "臺中市",
   "place": "社團法人大心福利服務共創協會附設私立藝家人居家長照機構",
   "address": "臺中市西區五權五街133巷30號1樓",
   "longitude": 120.6596527,
   "latitude": 24.13566017,
   "service": "個案管理服務",
   "phone": "",
   "email": "tcpt.pt@gmail.com"
 },
 {
   "city": "臺中市",
   "place": "傑可而股份有限公司私立御歸來居家長照機構。",
   "address": "臺中市西區忠誠里忠明南路16號6樓之2",
   "longitude": 120.6604614,
   "latitude": 24.15786934,
   "service": "個案管理服務",
   "phone": "04-23216861",
   "email": "kunda0318177@gmail.com"
 },
 {
   "city": "臺中市",
   "place": "倚飛科技有限公司附設臺中市私立天心居家長照機構",
   "address": "臺中市西屯區何德里大信街60號6樓之3",
   "longitude": 120.6613312,
   "latitude": 24.16553307,
   "service": "個案管理服務",
   "phone": "04-36091549",
   "email": "belinda850304@gmail.com"
 },
 {
   "city": "臺中市",
   "place": "社團法人中華仁仁關懷協會",
   "address": "臺中市大里區夏田里中投西路三段217號",
   "longitude": 120.6635056,
   "latitude": 24.08812714,
   "service": "個案管理服務",
   "phone": "04-23378067",
   "email": "qsmaster23378067@qingsong.com.tw"
 },
 {
   "city": "臺中市",
   "place": "龍井新庄藥局",
   "address": "臺中市西區模範街34巷10號",
   "longitude": 120.6671906,
   "latitude": 24.14888191,
   "service": "個案管理服務",
   "phone": "04-26313869、0916-696590",
   "email": "happycare234@gmail.com"
 },
 {
   "city": "臺中市",
   "place": "衛生福利部臺中醫院",
   "address": "臺中市西區三民路1段199號",
   "longitude": 120.6686325,
   "latitude": 24.13157082,
   "service": "個案管理服務",
   "phone": "04-22294411 #6176",
   "email": "taic82291@taic.mohw.gov.tw"
 },
 {
   "city": "臺中市",
   "place": "大慶居家護理所(南區)",
   "address": "臺中市南區五權南路380巷19號",
   "longitude": 120.6712723,
   "latitude": 24.12044716,
   "service": "個案管理服務",
   "phone": "04-22655948",
   "email": "m82533428@gmail.com"
 },
 {
   "city": "臺中市",
   "place": "鈺善園護理之家",
   "address": "臺中市北區育德里華中街30號",
   "longitude": 120.6721725,
   "latitude": 24.15761375,
   "service": "個案管理服務",
   "phone": "0920-038547",
   "email": "lingchiaju@gmail.com"
 },
 {
   "city": "臺中市",
   "place": "財團法人天主教曉明社會福利基金會",
   "address": "臺中市北區漢口路4段21號1樓",
   "longitude": 120.6742401,
   "latitude": 24.16713333,
   "service": "個案管理服務",
   "phone": "04-22974225#241",
   "email": "protection546@gmail.com"
 },
 {
   "city": "臺中市",
   "place": "仁愛醫療財團法人大里仁愛醫院(南區)",
   "address": "臺中市南區興大路145號",
   "longitude": 120.6759796,
   "latitude": 24.1232357,
   "service": "個案管理服務",
   "phone": "",
   "email": "jahchenpr6079@gmail.com"
 },
 {
   "city": "臺中市",
   "place": "社團法人台中市物理治療師公會",
   "address": "臺中市西區法院前街15號4樓之1",
   "longitude": 120.676445,
   "latitude": 24.13388062,
   "service": "個案管理服務",
   "phone": "04-22220329",
   "email": "taichungpt.longcare@gmail.com"
 },
 {
   "city": "臺中市",
   "place": "財團法人弘道老人福利基金會附設臺中市私立弘道第二區居家式服務類長期照顧服務機構",
   "address": "臺中市大里區永隆路33號3樓",
   "longitude": 120.6774292,
   "latitude": 24.10468483,
   "service": "個案管理服務",
   "phone": "04-24071518#20",
   "email": "office412@hondao.org.tw"
 },
 {
   "city": "臺中市",
   "place": "財團法人台中市私立甘霖社會福利慈善事業基金會(中區)",
   "address": "臺中市中區柳川東路三段5號2樓",
   "longitude": 120.6775131,
   "latitude": 24.14346504,
   "service": "個案管理服務",
   "phone": "04-22207818",
   "email": "glsfdaycare@gmail.com"
 },
 {
   "city": "臺中市",
   "place": "明康居家護理所",
   "address": "臺中市北屯區平興里綏遠路二段209號",
   "longitude": 120.6817398,
   "latitude": 24.17462158,
   "service": "個案管理服務",
   "phone": "0963-433555",
   "email": "ccijenny@hotmail.com.tw"
 },
 {
   "city": "臺中市",
   "place": "財團法人台中市私立真愛社會福利慈善事業基金會",
   "address": "臺中市北區頂厝里永興街340號3樓",
   "longitude": 120.6830368,
   "latitude": 24.16739655,
   "service": "個案管理服務",
   "phone": "04-22380562",
   "email": "turelove2017abc@gmail.com"
 },
 {
   "city": "臺中市",
   "place": "有限責任台中市居家照顧服務勞動合作社私立北區樂齡綜合長照機構",
   "address": "臺中市北區建興里衛道路155之2號1樓",
   "longitude": 120.6830368,
   "latitude": 24.16236115,
   "service": "個案管理服務",
   "phone": "",
   "email": "gfcare@gfcare.org"
 },
 {
   "city": "臺中市",
   "place": "臺中市私立杏恩居家長照機構",
   "address": "臺中市北區邱厝里大義街9號",
   "longitude": 120.683548,
   "latitude": 24.15813637,
   "service": "個案管理服務",
   "phone": "04-22356000",
   "email": "simann10803@gmail.com"
 },
 {
   "city": "臺中市",
   "place": "社團法人中華民國紅十字會台灣省台中市支會附設居家式長期照顧服務機構",
   "address": "臺中市中區綠川西街145號7樓",
   "longitude": 120.6840897,
   "latitude": 24.13945961,
   "service": "個案管理服務",
   "phone": "04-22222411",
   "email": "mafia1195@redcross.tw"
 },
 {
   "city": "臺中市",
   "place": "詮縈健康產業股份有限公司附設私立詮縈居家長照機構",
   "address": "臺中市北區頂厝里崇德路一段631號17樓之1(K室)",
   "longitude": 120.6848755,
   "latitude": 24.16748238,
   "service": "個案管理服務",
   "phone": "04-22311366",
   "email": "cy22311366@gmail.com"
 },
 {
   "city": "臺中市",
   "place": "社團法人臺中市秀老郎公益服務協會",
   "address": "臺中市東區振興里南門大公街57號",
   "longitude": 120.6859741,
   "latitude": 24.13343811,
   "service": "個案管理服務",
   "phone": "0925-536535",
   "email": "showold999@gmail.com"
 },
 {
   "city": "臺中市",
   "place": "社團法人台中市社會關懷服務協會私立活力勇居家長照機構",
   "address": "臺中市東區富仁里雙十路一段4之33號9樓",
   "longitude": 120.6861954,
   "latitude": 24.14706039,
   "service": "個案管理服務",
   "phone": "04-22126411",
   "email": "east40146@gmail.com"
 },
 {
   "city": "臺中市",
   "place": "財團法人弘道老人福利基金會(北區)",
   "address": "臺中市北區雙十路一段125號",
   "longitude": 120.6866455,
   "latitude": 24.14851761,
   "service": "個案管理服務",
   "phone": "04-22270125",
   "email": "joylee560808@hondao.org.tw"
 },
 {
   "city": "臺中市",
   "place": "財團法人伊甸社會福利基金會附設臺中市私立台中居家式服務類長期照顧服務機構",
   "address": "臺中市大里區大元里中興路二段48號",
   "longitude": 120.6870804,
   "latitude": 24.09647179,
   "service": "個案管理服務",
   "phone": "04-24870030#214",
   "email": "dep486@eden.org.tw"
 },
 {
   "city": "臺中市",
   "place": "臺中市私立天德居家式服務類長期照顧服務機構",
   "address": "臺中市北屯區平福里安順東七街55號",
   "longitude": 120.6884155,
   "latitude": 24.17500877,
   "service": "個案管理服務",
   "phone": "0958-221698",
   "email": "a0958221698@gmail.com"
 },
 {
   "city": "臺中市",
   "place": "春暉居家護理所",
   "address": "臺中市北屯區北屯里太原路三段161號3樓之6",
   "longitude": 120.6904144,
   "latitude": 24.16506386,
   "service": "個案管理服務",
   "phone": "04-22378557",
   "email": "gloriasun9981@gmail.com"
 },
 {
   "city": "臺中市",
   "place": "臺中市私立樂銀居家長照機構",
   "address": "臺中市東區富台里富台東街46號4樓之1",
   "longitude": 120.6909561,
   "latitude": 24.14369965,
   "service": "個案管理服務",
   "phone": "04-22111154",
   "email": "lovein292305@gmail.com"
 },
 {
   "city": "臺中市",
   "place": "社團法人台灣健康整合服務協會",
   "address": "臺中市北屯區松竹路二段227號",
   "longitude": 120.6943512,
   "latitude": 24.18298531,
   "service": "個案管理服務",
   "phone": "0983-254989",
   "email": "jenghau1123@gmail.com"
 },
 {
   "city": "臺中市",
   "place": "好樂齡銀髮事業有限公司附設臺中市私立顧老照居家式服務類長期照顧服務機構",
   "address": "臺中市北屯區平田里文心路四段955號4樓之4",
   "longitude": 120.6951065,
   "latitude": 24.17155266,
   "service": "個案管理服務",
   "phone": "04-22474455",
   "email": "howard.service@msa.hinet.net"
 },
 {
   "city": "臺中市",
   "place": "中化銀髮事業股份有限公司附設臺中市私立中化銀髮居家式服務類長期照顧服務機構",
   "address": "臺中市北區錦村里興進路119號(1至2樓)",
   "longitude": 120.6957855,
   "latitude": 24.15513611,
   "service": "個案管理服務",
   "phone": "04-23605123",
   "email": "cuby.wei@ccpc.com.tw"
 },
 {
   "city": "臺中市",
   "place": "有限責任臺中市橋僾照顧服務勞動合作社私立橋僾居家長照機構",
   "address": "臺中市東區東南里十甲路35巷4弄8號1樓",
   "longitude": 120.6961441,
   "latitude": 24.14500618,
   "service": "個案管理服務",
   "phone": "04-22113361",
   "email": "icare921@gmail.com"
 },
 {
   "city": "臺中市",
   "place": "本堂澄清醫院附設護理之家",
   "address": "臺中市霧峰區中正路720巷5號",
   "longitude": 120.6965561,
   "latitude": 24.05371475,
   "service": "個案管理服務",
   "phone": "04-23391000",
   "email": "f0925797713@yahoo.com.tw"
 },
 {
   "city": "臺中市",
   "place": "健民健康有限公司附設私立阿罩霧A埕居家長照機構",
   "address": "臺中市霧峰區萬豐里中正路146之8號1樓",
   "longitude": 120.6966095,
   "latitude": 24.02346039,
   "service": "個案管理服務",
   "phone": "04-23309358",
   "email": "ataabu9358@gmail.com"
 },